[{"city": "Phoenix", "neighborhood": "", "name": "SharpieTech", "business_id": "2aFiy99vNLklCx3T_tGS9A", "longitude": -112.0182329, "hours": null, "state": "AZ", "postal_code": "85050", "categories": ["Web Design", "IT Services & Computer Repair", "Local Services", "Professional Services"], "stars": 5.0, "address": "", "latitude": 33.6629442, "review_count": 3, "attributes": ["BusinessAcceptsCreditCards: True"], "type": "business", "is_open": 1}], [{"city": "Phoenix", "neighborhood": "", "name": "SharpieTech", "business_id": "2aFiy99vNLklCx3T_tGS9A", "longitude": -112.0182329, "hours": null, "state": "AZ", "postal_code": "85050", "categories": ["Web Design", "IT Services & Computer Repair", "Local Services", "Professional Services"], "stars": 5.0, "address": "", "latitude": 33.6629442, "review_count": 3, "attributes": ["BusinessAcceptsCreditCards: True"], "type": "business", "is_open": 1}], [{"city": "Phoenix", "neighborhood": "", "name": "SharpieTech", "business_id": "2aFiy99vNLklCx3T_tGS9A", "longitude": -112.0182329, "hours": null, "state": "AZ", "postal_code": "85050", "categories": ["Web Design", "IT Services & Computer Repair", "Local Services", "Professional Services"], "stars": 5.0, "address": "", "latitude": 33.6629442, "review_count": 3, "attributes": ["BusinessAcceptsCreditCards: True"], "type": "business", "is_open": 1}], [{"city": "Phoenix", "neighborhood": "", "name": "Modern On Melrose", "business_id": "2LfIuF3_sX6uwe-IR-P0jQ", "longitude": -112.082813, "hours": ["Monday 11:0-17:0", "Tuesday 11:0-17:0", "Wednesday 11:0-17:0", "Thursday 11:0-17:0", "Friday 11:0-17:0", "Saturday 11:0-17:0", "Sunday 11:0-17:0"], "state": "AZ", "postal_code": "85013", "categories": ["Home & Garden", "Antiques", "Home Decor", "Shopping"], "stars": 4.0, "address": "4610 N 7th Ave", "latitude": 33.5040543, "review_count": 15, "attributes": ["BikeParking: True", "BusinessAcceptsCreditCards: True", "BusinessParking: {'garage': False, 'street': True, 'validated': False, 'lot': True, 'valet': False}", "ByAppointmentOnly: False", "RestaurantsPriceRange2: 3"], "type": "business", "is_open": 0}], [{"city": "Phoenix", "neighborhood": "", "name": "Modern On Melrose", "business_id": "2LfIuF3_sX6uwe-IR-P0jQ", "longitude": -112.082813, "hours": ["Monday 11:0-17:0", "Tuesday 11:0-17:0", "Wednesday 11:0-17:0", "Thursday 11:0-17:0", "Friday 11:0-17:0", "Saturday 11:0-17:0", "Sunday 11:0-17:0"], "state": "AZ", "postal_code": "85013", "categories": ["Home & Garden", "Antiques", "Home Decor", "Shopping"], "stars": 4.0, "address": "4610 N 7th Ave", "latitude": 33.5040543, "review_count": 15, "attributes": ["BikeParking: True", "BusinessAcceptsCreditCards: True", "BusinessParking: {'garage': False, 'street': True, 'validated': False, 'lot': True, 'valet': False}", "ByAppointmentOnly: False", "RestaurantsPriceRange2: 3"], "type": "business", "is_open": 0}], [{"city": "Phoenix", "neighborhood": "", "name": "Modern On Melrose", "business_id": "2LfIuF3_sX6uwe-IR-P0jQ", "longitude": -112.082813, "hours": ["Monday 11:0-17:0", "Tuesday 11:0-17:0", "Wednesday 11:0-17:0", "Thursday 11:0-17:0", "Friday 11:0-17:0", "Saturday 11:0-17:0", "Sunday 11:0-17:0"], "state": "AZ", "postal_code": "85013", "categories": ["Home & Garden", "Antiques", "Home Decor", "Shopping"], "stars": 4.0, "address": "4610 N 7th Ave", "latitude": 33.5040543, "review_count": 15, "attributes": ["BikeParking: True", "BusinessAcceptsCreditCards: True", "BusinessParking: {'garage': False, 'street': True, 'validated': False, 'lot': True, 'valet': False}", "ByAppointmentOnly: False", "RestaurantsPriceRange2: 3"], "type": "business", "is_open": 0}], [{"city": "Phoenix", "neighborhood": "", "name": "Modern On Melrose", "business_id": "2LfIuF3_sX6uwe-IR-P0jQ", "longitude": -112.082813, "hours": ["Monday 11:0-17:0", "Tuesday 11:0-17:0", "Wednesday 11:0-17:0", "Thursday 11:0-17:0", "Friday 11:0-17:0", "Saturday 11:0-17:0", "Sunday 11:0-17:0"], "state": "AZ", "postal_code": "85013", "categories": ["Home & Garden", "Antiques", "Home Decor", "Shopping"], "stars": 4.0, "address": "4610 N 7th Ave", "latitude": 33.5040543, "review_count": 15, "attributes": ["BikeParking: True", "BusinessAcceptsCreditCards: True", "BusinessParking: {'garage': False, 'street': True, 'validated': False, 'lot': True, 'valet': False}", "ByAppointmentOnly: False", "RestaurantsPriceRange2: 3"], "type": "business", "is_open": 0}], [{"city": "Phoenix", "neighborhood": "", "name": "Modern On Melrose", "business_id": "2LfIuF3_sX6uwe-IR-P0jQ", "longitude": -112.082813, "hours": ["Monday 11:0-17:0", "Tuesday 11:0-17:0", "Wednesday 11:0-17:0", "Thursday 11:0-17:0", "Friday 11:0-17:0", "Saturday 11:0-17:0", "Sunday 11:0-17:0"], "state": "AZ", "postal_code": "85013", "categories": ["Home & Garden", "Antiques", "Home Decor", "Shopping"], "stars": 4.0, "address": "4610 N 7th Ave", "latitude": 33.5040543, "review_count": 15, "attributes": ["BikeParking: True", "BusinessAcceptsCreditCards: True", "BusinessParking: {'garage': False, 'street': True, 'validated': False, 'lot': True, 'valet': False}", "ByAppointmentOnly: False", "RestaurantsPriceRange2: 3"], "type": "business", "is_open": 0}], [{"city": "Phoenix", "neighborhood": "", "name": "Modern On Melrose", "business_id": "2LfIuF3_sX6uwe-IR-P0jQ", "longitude": -112.082813, "hours": ["Monday 11:0-17:0", "Tuesday 11:0-17:0", "Wednesday 11:0-17:0", "Thursday 11:0-17:0", "Friday 11:0-17:0", "Saturday 11:0-17:0", "Sunday 11:0-17:0"], "state": "AZ", "postal_code": "85013", "categories": ["Home & Garden", "Antiques", "Home Decor", "Shopping"], "stars": 4.0, "address": "4610 N 7th Ave", "latitude": 33.5040543, "review_count": 15, "attributes": ["BikeParking: True", "BusinessAcceptsCreditCards: True", "BusinessParking: {'garage': False, 'street': True, 'validated': False, 'lot': True, 'valet': False}", "ByAppointmentOnly: False", "RestaurantsPriceRange2: 3"], "type": "business", "is_open": 0}], [{"city": "Phoenix", "neighborhood": "", "name": "Modern On Melrose", "business_id": "2LfIuF3_sX6uwe-IR-P0jQ", "longitude": -112.082813, "hours": ["Monday 11:0-17:0", "Tuesday 11:0-17:0", "Wednesday 11:0-17:0", "Thursday 11:0-17:0", "Friday 11:0-17:0", "Saturday 11:0-17:0", "Sunday 11:0-17:0"], "state": "AZ", "postal_code": "85013", "categories": ["Home & Garden", "Antiques", "Home Decor", "Shopping"], "stars": 4.0, "address": "4610 N 7th Ave", "latitude": 33.5040543, "review_count": 15, "attributes": ["BikeParking: True", "BusinessAcceptsCreditCards: True", "BusinessParking: {'garage': False, 'street': True, 'validated': False, 'lot': True, 'valet': False}", "ByAppointmentOnly: False", "RestaurantsPriceRange2: 3"], "type": "business", "is_open": 0}], [{"city": "Phoenix", "neighborhood": "", "name": "Modern On Melrose", "business_id": "2LfIuF3_sX6uwe-IR-P0jQ", "longitude": -112.082813, "hours": ["Monday 11:0-17:0", "Tuesday 11:0-17:0", "Wednesday 11:0-17:0", "Thursday 11:0-17:0", "Friday 11:0-17:0", "Saturday 11:0-17:0", "Sunday 11:0-17:0"], "state": "AZ", "postal_code": "85013", "categories": ["Home & Garden", "Antiques", "Home Decor", "Shopping"], "stars": 4.0, "address": "4610 N 7th Ave", "latitude": 33.5040543, "review_count": 15, "attributes": ["BikeParking: True", "BusinessAcceptsCreditCards: True", "BusinessParking: {'garage': False, 'street': True, 'validated': False, 'lot': True, 'valet': False}", "ByAppointmentOnly: False", "RestaurantsPriceRange2: 3"], "type": "business", "is_open": 0}], [{"city": "Phoenix", "neighborhood": "", "name": "Modern On Melrose", "business_id": "2LfIuF3_sX6uwe-IR-P0jQ", "longitude": -112.082813, "hours": ["Monday 11:0-17:0", "Tuesday 11:0-17:0", "Wednesday 11:0-17:0", "Thursday 11:0-17:0", "Friday 11:0-17:0", "Saturday 11:0-17:0", "Sunday 11:0-17:0"], "state": "AZ", "postal_code": "85013", "categories": ["Home & Garden", "Antiques", "Home Decor", "Shopping"], "stars": 4.0, "address": "4610 N 7th Ave", "latitude": 33.5040543, "review_count": 15, "attributes": ["BikeParking: True", "BusinessAcceptsCreditCards: True", "BusinessParking: {'garage': False, 'street': True, 'validated': False, 'lot': True, 'valet': False}", "ByAppointmentOnly: False", "RestaurantsPriceRange2: 3"], "type": "business", "is_open": 0}], [{"city": "Phoenix", "neighborhood": "", "name": "Modern On Melrose", "business_id": "2LfIuF3_sX6uwe-IR-P0jQ", "longitude": -112.082813, "hours": ["Monday 11:0-17:0", "Tuesday 11:0-17:0", "Wednesday 11:0-17:0", "Thursday 11:0-17:0", "Friday 11:0-17:0", "Saturday 11:0-17:0", "Sunday 11:0-17:0"], "state": "AZ", "postal_code": "85013", "categories": ["Home & Garden", "Antiques", "Home Decor", "Shopping"], "stars": 4.0, "address": "4610 N 7th Ave", "latitude": 33.5040543, "review_count": 15, "attributes": ["BikeParking: True", "BusinessAcceptsCreditCards: True", "BusinessParking: {'garage': False, 'street': True, 'validated': False, 'lot': True, 'valet': False}", "ByAppointmentOnly: False", "RestaurantsPriceRange2: 3"], "type": "business", "is_open": 0}], [{"city": "Phoenix", "neighborhood": "", "name": "Modern On Melrose", "business_id": "2LfIuF3_sX6uwe-IR-P0jQ", "longitude": -112.082813, "hours": ["Monday 11:0-17:0", "Tuesday 11:0-17:0", "Wednesday 11:0-17:0", "Thursday 11:0-17:0", "Friday 11:0-17:0", "Saturday 11:0-17:0", "Sunday 11:0-17:0"], "state": "AZ", "postal_code": "85013", "categories": ["Home & Garden", "Antiques", "Home Decor", "Shopping"], "stars": 4.0, "address": "4610 N 7th Ave", "latitude": 33.5040543, "review_count": 15, "attributes": ["BikeParking: True", "BusinessAcceptsCreditCards: True", "BusinessParking: {'garage': False, 'street': True, 'validated': False, 'lot': True, 'valet': False}", "ByAppointmentOnly: False", "RestaurantsPriceRange2: 3"], "type": "business", "is_open": 0}], [{"city": "Phoenix", "neighborhood": "", "name": "Modern On Melrose", "business_id": "2LfIuF3_sX6uwe-IR-P0jQ", "longitude": -112.082813, "hours": ["Monday 11:0-17:0", "Tuesday 11:0-17:0", "Wednesday 11:0-17:0", "Thursday 11:0-17:0", "Friday 11:0-17:0", "Saturday 11:0-17:0", "Sunday 11:0-17:0"], "state": "AZ", "postal_code": "85013", "categories": ["Home & Garden", "Antiques", "Home Decor", "Shopping"], "stars": 4.0, "address": "4610 N 7th Ave", "latitude": 33.5040543, "review_count": 15, "attributes": ["BikeParking: True", "BusinessAcceptsCreditCards: True", "BusinessParking: {'garage': False, 'street': True, 'validated': False, 'lot': True, 'valet': False}", "ByAppointmentOnly: False", "RestaurantsPriceRange2: 3"], "type": "business", "is_open": 0}], [{"city": "Phoenix", "neighborhood": "", "name": "Modern On Melrose", "business_id": "2LfIuF3_sX6uwe-IR-P0jQ", "longitude": -112.082813, "hours": ["Monday 11:0-17:0", "Tuesday 11:0-17:0", "Wednesday 11:0-17:0", "Thursday 11:0-17:0", "Friday 11:0-17:0", "Saturday 11:0-17:0", "Sunday 11:0-17:0"], "state": "AZ", "postal_code": "85013", "categories": ["Home & Garden", "Antiques", "Home Decor", "Shopping"], "stars": 4.0, "address": "4610 N 7th Ave", "latitude": 33.5040543, "review_count": 15, "attributes": ["BikeParking: True", "BusinessAcceptsCreditCards: True", "BusinessParking: {'garage': False, 'street': True, 'validated': False, 'lot': True, 'valet': False}", "ByAppointmentOnly: False", "RestaurantsPriceRange2: 3"], "type": "business", "is_open": 0}], [{"city": "Phoenix", "neighborhood": "", "name": "Modern On Melrose", "business_id": "2LfIuF3_sX6uwe-IR-P0jQ", "longitude": -112.082813, "hours": ["Monday 11:0-17:0", "Tuesday 11:0-17:0", "Wednesday 11:0-17:0", "Thursday 11:0-17:0", "Friday 11:0-17:0", "Saturday 11:0-17:0", "Sunday 11:0-17:0"], "state": "AZ", "postal_code": "85013", "categories": ["Home & Garden", "Antiques", "Home Decor", "Shopping"], "stars": 4.0, "address": "4610 N 7th Ave", "latitude": 33.5040543, "review_count": 15, "attributes": ["BikeParking: True", "BusinessAcceptsCreditCards: True", "BusinessParking: {'garage': False, 'street': True, 'validated': False, 'lot': True, 'valet': False}", "ByAppointmentOnly: False", "RestaurantsPriceRange2: 3"], "type": "business", "is_open": 0}], [{"city": "Phoenix", "neighborhood": "", "name": "Mint", "business_id": "0czfEgv9KAD4VlIa7ANPWQ", "longitude": -112.0709232, "hours": null, "state": "AZ", "postal_code": "85012", "categories": ["Women's Clothing", "Used", "Vintage & Consignment", "Shopping", "Fashion"], "stars": 3.0, "address": "201 E Camelback Rd", "latitude": 33.5090487, "review_count": 10, "attributes": ["BusinessAcceptsCreditCards: True", "BusinessParking: {'garage': False, 'street': False, 'validated': False, 'lot': True, 'valet': False}", "RestaurantsPriceRange2: 2", "WheelchairAccessible: True"], "type": "business", "is_open": 0}], [{"city": "Phoenix", "neighborhood": "", "name": "Mint", "business_id": "0czfEgv9KAD4VlIa7ANPWQ", "longitude": -112.0709232, "hours": null, "state": "AZ", "postal_code": "85012", "categories": ["Women's Clothing", "Used", "Vintage & Consignment", "Shopping", "Fashion"], "stars": 3.0, "address": "201 E Camelback Rd", "latitude": 33.5090487, "review_count": 10, "attributes": ["BusinessAcceptsCreditCards: True", "BusinessParking: {'garage': False, 'street': False, 'validated': False, 'lot': True, 'valet': False}", "RestaurantsPriceRange2: 2", "WheelchairAccessible: True"], "type": "business", "is_open": 0}], [{"city": "Phoenix", "neighborhood": "", "name": "Mint", "business_id": "0czfEgv9KAD4VlIa7ANPWQ", "longitude": -112.0709232, "hours": null, "state": "AZ", "postal_code": "85012", "categories": ["Women's Clothing", "Used", "Vintage & Consignment", "Shopping", "Fashion"], "stars": 3.0, "address": "201 E Camelback Rd", "latitude": 33.5090487, "review_count": 10, "attributes": ["BusinessAcceptsCreditCards: True", "BusinessParking: {'garage': False, 'street': False, 'validated': False, 'lot': True, 'valet': False}", "RestaurantsPriceRange2: 2", "WheelchairAccessible: True"], "type": "business", "is_open": 0}], [{"city": "Phoenix", "neighborhood": "", "name": "Mint", "business_id": "0czfEgv9KAD4VlIa7ANPWQ", "longitude": -112.0709232, "hours": null, "state": "AZ", "postal_code": "85012", "categories": ["Women's Clothing", "Used", "Vintage & Consignment", "Shopping", "Fashion"], "stars": 3.0, "address": "201 E Camelback Rd", "latitude": 33.5090487, "review_count": 10, "attributes": ["BusinessAcceptsCreditCards: True", "BusinessParking: {'garage': False, 'street': False, 'validated': False, 'lot': True, 'valet': False}", "RestaurantsPriceRange2: 2", "WheelchairAccessible: True"], "type": "business", "is_open": 0}], [{"city": "Phoenix", "neighborhood": "", "name": "Mint", "business_id": "0czfEgv9KAD4VlIa7ANPWQ", "longitude": -112.0709232, "hours": null, "state": "AZ", "postal_code": "85012", "categories": ["Women's Clothing", "Used", "Vintage & Consignment", "Shopping", "Fashion"], "stars": 3.0, "address": "201 E Camelback Rd", "latitude": 33.5090487, "review_count": 10, "attributes": ["BusinessAcceptsCreditCards: True", "BusinessParking: {'garage': False, 'street': False, 'validated': False, 'lot': True, 'valet': False}", "RestaurantsPriceRange2: 2", "WheelchairAccessible: True"], "type": "business", "is_open": 0}], [{"city": "Phoenix", "neighborhood": "", "name": "Mint", "business_id": "0czfEgv9KAD4VlIa7ANPWQ", "longitude": -112.0709232, "hours": null, "state": "AZ", "postal_code": "85012", "categories": ["Women's Clothing", "Used", "Vintage & Consignment", "Shopping", "Fashion"], "stars": 3.0, "address": "201 E Camelback Rd", "latitude": 33.5090487, "review_count": 10, "attributes": ["BusinessAcceptsCreditCards: True", "BusinessParking: {'garage': False, 'street': False, 'validated': False, 'lot': True, 'valet': False}", "RestaurantsPriceRange2: 2", "WheelchairAccessible: True"], "type": "business", "is_open": 0}], [{"city": "Phoenix", "neighborhood": "", "name": "Mint", "business_id": "0czfEgv9KAD4VlIa7ANPWQ", "longitude": -112.0709232, "hours": null, "state": "AZ", "postal_code": "85012", "categories": ["Women's Clothing", "Used", "Vintage & Consignment", "Shopping", "Fashion"], "stars": 3.0, "address": "201 E Camelback Rd", "latitude": 33.5090487, "review_count": 10, "attributes": ["BusinessAcceptsCreditCards: True", "BusinessParking: {'garage': False, 'street': False, 'validated': False, 'lot': True, 'valet': False}", "RestaurantsPriceRange2: 2", "WheelchairAccessible: True"], "type": "business", "is_open": 0}], [{"city": "Phoenix", "neighborhood": "", "name": "Mint", "business_id": "0czfEgv9KAD4VlIa7ANPWQ", "longitude": -112.0709232, "hours": null, "state": "AZ", "postal_code": "85012", "categories": ["Women's Clothing", "Used", "Vintage & Consignment", "Shopping", "Fashion"], "stars": 3.0, "address": "201 E Camelback Rd", "latitude": 33.5090487, "review_count": 10, "attributes": ["BusinessAcceptsCreditCards: True", "BusinessParking: {'garage': False, 'street': False, 'validated': False, 'lot': True, 'valet': False}", "RestaurantsPriceRange2: 2", "WheelchairAccessible: True"], "type": "business", "is_open": 0}], [{"city": "Phoenix", "neighborhood": "", "name": "Western States Petroleum", "business_id": "7GI_V9oLCUGdn2ogqB0IBg", "longitude": -112.0926092, "hours": null, "state": "AZ", "postal_code": "85007", "categories": ["Professional Services", "Gas & Service Stations", "Automotive"], "stars": 3.5, "address": "450 S 15th Ave", "latitude": 33.4426182, "review_count": 3, "attributes": null, "type": "business", "is_open": 1}], [{"city": "Phoenix", "neighborhood": "", "name": "Western States Petroleum", "business_id": "7GI_V9oLCUGdn2ogqB0IBg", "longitude": -112.0926092, "hours": null, "state": "AZ", "postal_code": "85007", "categories": ["Professional Services", "Gas & Service Stations", "Automotive"], "stars": 3.5, "address": "450 S 15th Ave", "latitude": 33.4426182, "review_count": 3, "attributes": null, "type": "business", "is_open": 1}], [{"city": "Phoenix", "neighborhood": "", "name": "Western States Petroleum", "business_id": "7GI_V9oLCUGdn2ogqB0IBg", "longitude": -112.0926092, "hours": null, "state": "AZ", "postal_code": "85007", "categories": ["Professional Services", "Gas & Service Stations", "Automotive"], "stars": 3.5, "address": "450 S 15th Ave", "latitude": 33.4426182, "review_count": 3, "attributes": null, "type": "business", "is_open": 1}], [{"city": "Brecksville", "neighborhood": "", "name": "London Pickle Works", "business_id": "4P-vTvE6cncJyUyLh73pxw", "longitude": -81.6269998, "hours": ["Monday 11:0-2:0", "Tuesday 11:0-2:0", "Wednesday 11:0-2:0", "Thursday 11:0-2:0", "Friday 11:0-2:0", "Saturday 11:0-2:0", "Sunday 11:0-2:0"], "state": "OH", "postal_code": "44141", "categories": ["Nightlife", "American (Traditional)", "Pubs", "Restaurants", "Bars"], "stars": 3.5, "address": "7265 Fitzwater Rd", "latitude": 41.3403188, "review_count": 23, "attributes": ["Alcohol: full_bar", "Ambience: {'romantic': False, 'intimate': False, 'classy': False, 'hipster': False, 'divey': False, 'touristy': False, 'trendy': False, 'upscale': False, 'casual': False}", "BikeParking: True", "BusinessAcceptsCreditCards: True", "BusinessParking: {'garage': False, 'street': False, 'validated': False, 'lot': True, 'valet': False}", "CoatCheck: False", "GoodForDancing: False", "GoodForKids: True", "GoodForMeal: {'dessert': False, 'latenight': False, 'lunch': False, 'dinner': False, 'breakfast': False, 'brunch': False}", "HappyHour: True", "HasTV: True", "NoiseLevel: average", "OutdoorSeating: True", "RestaurantsAttire: casual", "RestaurantsDelivery: False", "RestaurantsGoodForGroups: True", "RestaurantsPriceRange2: 1", "RestaurantsReservations: False", "RestaurantsTableService: True", "RestaurantsTakeOut: True", "WheelchairAccessible: True", "WiFi: no"], "type": "business", "is_open": 1}], [{"city": "Brecksville", "neighborhood": "", "name": "London Pickle Works", "business_id": "4P-vTvE6cncJyUyLh73pxw", "longitude": -81.6269998, "hours": ["Monday 11:0-2:0", "Tuesday 11:0-2:0", "Wednesday 11:0-2:0", "Thursday 11:0-2:0", "Friday 11:0-2:0", "Saturday 11:0-2:0", "Sunday 11:0-2:0"], "state": "OH", "postal_code": "44141", "categories": ["Nightlife", "American (Traditional)", "Pubs", "Restaurants", "Bars"], "stars": 3.5, "address": "7265 Fitzwater Rd", "latitude": 41.3403188, "review_count": 23, "attributes": ["Alcohol: full_bar", "Ambience: {'romantic': False, 'intimate': False, 'classy': False, 'hipster': False, 'divey': False, 'touristy': False, 'trendy': False, 'upscale': False, 'casual': False}", "BikeParking: True", "BusinessAcceptsCreditCards: True", "BusinessParking: {'garage': False, 'street': False, 'validated': False, 'lot': True, 'valet': False}", "CoatCheck: False", "GoodForDancing: False", "GoodForKids: True", "GoodForMeal: {'dessert': False, 'latenight': False, 'lunch': False, 'dinner': False, 'breakfast': False, 'brunch': False}", "HappyHour: True", "HasTV: True", "NoiseLevel: average", "OutdoorSeating: True", "RestaurantsAttire: casual", "RestaurantsDelivery: False", "RestaurantsGoodForGroups: True", "RestaurantsPriceRange2: 1", "RestaurantsReservations: False", "RestaurantsTableService: True", "RestaurantsTakeOut: True", "WheelchairAccessible: True", "WiFi: no"], "type": "business", "is_open": 1}], [{"city": "Brecksville", "neighborhood": "", "name": "London Pickle Works", "business_id": "4P-vTvE6cncJyUyLh73pxw", "longitude": -81.6269998, "hours": ["Monday 11:0-2:0", "Tuesday 11:0-2:0", "Wednesday 11:0-2:0", "Thursday 11:0-2:0", "Friday 11:0-2:0", "Saturday 11:0-2:0", "Sunday 11:0-2:0"], "state": "OH", "postal_code": "44141", "categories": ["Nightlife", "American (Traditional)", "Pubs", "Restaurants", "Bars"], "stars": 3.5, "address": "7265 Fitzwater Rd", "latitude": 41.3403188, "review_count": 23, "attributes": ["Alcohol: full_bar", "Ambience: {'romantic': False, 'intimate': False, 'classy': False, 'hipster': False, 'divey': False, 'touristy': False, 'trendy': False, 'upscale': False, 'casual': False}", "BikeParking: True", "BusinessAcceptsCreditCards: True", "BusinessParking: {'garage': False, 'street': False, 'validated': False, 'lot': True, 'valet': False}", "CoatCheck: False", "GoodForDancing: False", "GoodForKids: True", "GoodForMeal: {'dessert': False, 'latenight': False, 'lunch': False, 'dinner': False, 'breakfast': False, 'brunch': False}", "HappyHour: True", "HasTV: True", "NoiseLevel: average", "OutdoorSeating: True", "RestaurantsAttire: casual", "RestaurantsDelivery: False", "RestaurantsGoodForGroups: True", "RestaurantsPriceRange2: 1", "RestaurantsReservations: False", "RestaurantsTableService: True", "RestaurantsTakeOut: True", "WheelchairAccessible: True", "WiFi: no"], "type": "business", "is_open": 1}], [{"city": "Brecksville", "neighborhood": "", "name": "London Pickle Works", "business_id": "4P-vTvE6cncJyUyLh73pxw", "longitude": -81.6269998, "hours": ["Monday 11:0-2:0", "Tuesday 11:0-2:0", "Wednesday 11:0-2:0", "Thursday 11:0-2:0", "Friday 11:0-2:0", "Saturday 11:0-2:0", "Sunday 11:0-2:0"], "state": "OH", "postal_code": "44141", "categories": ["Nightlife", "American (Traditional)", "Pubs", "Restaurants", "Bars"], "stars": 3.5, "address": "7265 Fitzwater Rd", "latitude": 41.3403188, "review_count": 23, "attributes": ["Alcohol: full_bar", "Ambience: {'romantic': False, 'intimate': False, 'classy': False, 'hipster': False, 'divey': False, 'touristy': False, 'trendy': False, 'upscale': False, 'casual': False}", "BikeParking: True", "BusinessAcceptsCreditCards: True", "BusinessParking: {'garage': False, 'street': False, 'validated': False, 'lot': True, 'valet': False}", "CoatCheck: False", "GoodForDancing: False", "GoodForKids: True", "GoodForMeal: {'dessert': False, 'latenight': False, 'lunch': False, 'dinner': False, 'breakfast': False, 'brunch': False}", "HappyHour: True", "HasTV: True", "NoiseLevel: average", "OutdoorSeating: True", "RestaurantsAttire: casual", "RestaurantsDelivery: False", "RestaurantsGoodForGroups: True", "RestaurantsPriceRange2: 1", "RestaurantsReservations: False", "RestaurantsTableService: True", "RestaurantsTakeOut: True", "WheelchairAccessible: True", "WiFi: no"], "type": "business", "is_open": 1}], [{"city": "Brecksville", "neighborhood": "", "name": "London Pickle Works", "business_id": "4P-vTvE6cncJyUyLh73pxw", "longitude": -81.6269998, "hours": ["Monday 11:0-2:0", "Tuesday 11:0-2:0", "Wednesday 11:0-2:0", "Thursday 11:0-2:0", "Friday 11:0-2:0", "Saturday 11:0-2:0", "Sunday 11:0-2:0"], "state": "OH", "postal_code": "44141", "categories": ["Nightlife", "American (Traditional)", "Pubs", "Restaurants", "Bars"], "stars": 3.5, "address": "7265 Fitzwater Rd", "latitude": 41.3403188, "review_count": 23, "attributes": ["Alcohol: full_bar", "Ambience: {'romantic': False, 'intimate': False, 'classy': False, 'hipster': False, 'divey': False, 'touristy': False, 'trendy': False, 'upscale': False, 'casual': False}", "BikeParking: True", "BusinessAcceptsCreditCards: True", "BusinessParking: {'garage': False, 'street': False, 'validated': False, 'lot': True, 'valet': False}", "CoatCheck: False", "GoodForDancing: False", "GoodForKids: True", "GoodForMeal: {'dessert': False, 'latenight': False, 'lunch': False, 'dinner': False, 'breakfast': False, 'brunch': False}", "HappyHour: True", "HasTV: True", "NoiseLevel: average", "OutdoorSeating: True", "RestaurantsAttire: casual", "RestaurantsDelivery: False", "RestaurantsGoodForGroups: True", "RestaurantsPriceRange2: 1", "RestaurantsReservations: False", "RestaurantsTableService: True", "RestaurantsTakeOut: True", "WheelchairAccessible: True", "WiFi: no"], "type": "business", "is_open": 1}], [{"city": "Brecksville", "neighborhood": "", "name": "London Pickle Works", "business_id": "4P-vTvE6cncJyUyLh73pxw", "longitude": -81.6269998, "hours": ["Monday 11:0-2:0", "Tuesday 11:0-2:0", "Wednesday 11:0-2:0", "Thursday 11:0-2:0", "Friday 11:0-2:0", "Saturday 11:0-2:0", "Sunday 11:0-2:0"], "state": "OH", "postal_code": "44141", "categories": ["Nightlife", "American (Traditional)", "Pubs", "Restaurants", "Bars"], "stars": 3.5, "address": "7265 Fitzwater Rd", "latitude": 41.3403188, "review_count": 23, "attributes": ["Alcohol: full_bar", "Ambience: {'romantic': False, 'intimate': False, 'classy': False, 'hipster': False, 'divey': False, 'touristy': False, 'trendy': False, 'upscale': False, 'casual': False}", "BikeParking: True", "BusinessAcceptsCreditCards: True", "BusinessParking: {'garage': False, 'street': False, 'validated': False, 'lot': True, 'valet': False}", "CoatCheck: False", "GoodForDancing: False", "GoodForKids: True", "GoodForMeal: {'dessert': False, 'latenight': False, 'lunch': False, 'dinner': False, 'breakfast': False, 'brunch': False}", "HappyHour: True", "HasTV: True", "NoiseLevel: average", "OutdoorSeating: True", "RestaurantsAttire: casual", "RestaurantsDelivery: False", "RestaurantsGoodForGroups: True", "RestaurantsPriceRange2: 1", "RestaurantsReservations: False", "RestaurantsTableService: True", "RestaurantsTakeOut: True", "WheelchairAccessible: True", "WiFi: no"], "type": "business", "is_open": 1}], [{"city": "Brecksville", "neighborhood": "", "name": "London Pickle Works", "business_id": "4P-vTvE6cncJyUyLh73pxw", "longitude": -81.6269998, "hours": ["Monday 11:0-2:0", "Tuesday 11:0-2:0", "Wednesday 11:0-2:0", "Thursday 11:0-2:0", "Friday 11:0-2:0", "Saturday 11:0-2:0", "Sunday 11:0-2:0"], "state": "OH", "postal_code": "44141", "categories": ["Nightlife", "American (Traditional)", "Pubs", "Restaurants", "Bars"], "stars": 3.5, "address": "7265 Fitzwater Rd", "latitude": 41.3403188, "review_count": 23, "attributes": ["Alcohol: full_bar", "Ambience: {'romantic': False, 'intimate': False, 'classy': False, 'hipster': False, 'divey': False, 'touristy': False, 'trendy': False, 'upscale': False, 'casual': False}", "BikeParking: True", "BusinessAcceptsCreditCards: True", "BusinessParking: {'garage': False, 'street': False, 'validated': False, 'lot': True, 'valet': False}", "CoatCheck: False", "GoodForDancing: False", "GoodForKids: True", "GoodForMeal: {'dessert': False, 'latenight': False, 'lunch': False, 'dinner': False, 'breakfast': False, 'brunch': False}", "HappyHour: True", "HasTV: True", "NoiseLevel: average", "OutdoorSeating: True", "RestaurantsAttire: casual", "RestaurantsDelivery: False", "RestaurantsGoodForGroups: True", "RestaurantsPriceRange2: 1", "RestaurantsReservations: False", "RestaurantsTableService: True", "RestaurantsTakeOut: True", "WheelchairAccessible: True", "WiFi: no"], "type": "business", "is_open": 1}], [{"city": "Brecksville", "neighborhood": "", "name": "London Pickle Works", "business_id": "4P-vTvE6cncJyUyLh73pxw", "longitude": -81.6269998, "hours": ["Monday 11:0-2:0", "Tuesday 11:0-2:0", "Wednesday 11:0-2:0", "Thursday 11:0-2:0", "Friday 11:0-2:0", "Saturday 11:0-2:0", "Sunday 11:0-2:0"], "state": "OH", "postal_code": "44141", "categories": ["Nightlife", "American (Traditional)", "Pubs", "Restaurants", "Bars"], "stars": 3.5, "address": "7265 Fitzwater Rd", "latitude": 41.3403188, "review_count": 23, "attributes": ["Alcohol: full_bar", "Ambience: {'romantic': False, 'intimate': False, 'classy': False, 'hipster': False, 'divey': False, 'touristy': False, 'trendy': False, 'upscale': False, 'casual': False}", "BikeParking: True", "BusinessAcceptsCreditCards: True", "BusinessParking: {'garage': False, 'street': False, 'validated': False, 'lot': True, 'valet': False}", "CoatCheck: False", "GoodForDancing: False", "GoodForKids: True", "GoodForMeal: {'dessert': False, 'latenight': False, 'lunch': False, 'dinner': False, 'breakfast': False, 'brunch': False}", "HappyHour: True", "HasTV: True", "NoiseLevel: average", "OutdoorSeating: True", "RestaurantsAttire: casual", "RestaurantsDelivery: False", "RestaurantsGoodForGroups: True", "RestaurantsPriceRange2: 1", "RestaurantsReservations: False", "RestaurantsTableService: True", "RestaurantsTakeOut: True", "WheelchairAccessible: True", "WiFi: no"], "type": "business", "is_open": 1}], [{"city": "Brecksville", "neighborhood": "", "name": "London Pickle Works", "business_id": "4P-vTvE6cncJyUyLh73pxw", "longitude": -81.6269998, "hours": ["Monday 11:0-2:0", "Tuesday 11:0-2:0", "Wednesday 11:0-2:0", "Thursday 11:0-2:0", "Friday 11:0-2:0", "Saturday 11:0-2:0", "Sunday 11:0-2:0"], "state": "OH", "postal_code": "44141", "categories": ["Nightlife", "American (Traditional)", "Pubs", "Restaurants", "Bars"], "stars": 3.5, "address": "7265 Fitzwater Rd", "latitude": 41.3403188, "review_count": 23, "attributes": ["Alcohol: full_bar", "Ambience: {'romantic': False, 'intimate': False, 'classy': False, 'hipster': False, 'divey': False, 'touristy': False, 'trendy': False, 'upscale': False, 'casual': False}", "BikeParking: True", "BusinessAcceptsCreditCards: True", "BusinessParking: {'garage': False, 'street': False, 'validated': False, 'lot': True, 'valet': False}", "CoatCheck: False", "GoodForDancing: False", "GoodForKids: True", "GoodForMeal: {'dessert': False, 'latenight': False, 'lunch': False, 'dinner': False, 'breakfast': False, 'brunch': False}", "HappyHour: True", "HasTV: True", "NoiseLevel: average", "OutdoorSeating: True", "RestaurantsAttire: casual", "RestaurantsDelivery: False", "RestaurantsGoodForGroups: True", "RestaurantsPriceRange2: 1", "RestaurantsReservations: False", "RestaurantsTableService: True", "RestaurantsTakeOut: True", "WheelchairAccessible: True", "WiFi: no"], "type": "business", "is_open": 1}], [{"city": "Brecksville", "neighborhood": "", "name": "London Pickle Works", "business_id": "4P-vTvE6cncJyUyLh73pxw", "longitude": -81.6269998, "hours": ["Monday 11:0-2:0", "Tuesday 11:0-2:0", "Wednesday 11:0-2:0", "Thursday 11:0-2:0", "Friday 11:0-2:0", "Saturday 11:0-2:0", "Sunday 11:0-2:0"], "state": "OH", "postal_code": "44141", "categories": ["Nightlife", "American (Traditional)", "Pubs", "Restaurants", "Bars"], "stars": 3.5, "address": "7265 Fitzwater Rd", "latitude": 41.3403188, "review_count": 23, "attributes": ["Alcohol: full_bar", "Ambience: {'romantic': False, 'intimate': False, 'classy': False, 'hipster': False, 'divey': False, 'touristy': False, 'trendy': False, 'upscale': False, 'casual': False}", "BikeParking: True", "BusinessAcceptsCreditCards: True", "BusinessParking: {'garage': False, 'street': False, 'validated': False, 'lot': True, 'valet': False}", "CoatCheck: False", "GoodForDancing: False", "GoodForKids: True", "GoodForMeal: {'dessert': False, 'latenight': False, 'lunch': False, 'dinner': False, 'breakfast': False, 'brunch': False}", "HappyHour: True", "HasTV: True", "NoiseLevel: average", "OutdoorSeating: True", "RestaurantsAttire: casual", "RestaurantsDelivery: False", "RestaurantsGoodForGroups: True", "RestaurantsPriceRange2: 1", "RestaurantsReservations: False", "RestaurantsTableService: True", "RestaurantsTakeOut: True", "WheelchairAccessible: True", "WiFi: no"], "type": "business", "is_open": 1}], [{"city": "Brecksville", "neighborhood": "", "name": "London Pickle Works", "business_id": "4P-vTvE6cncJyUyLh73pxw", "longitude": -81.6269998, "hours": ["Monday 11:0-2:0", "Tuesday 11:0-2:0", "Wednesday 11:0-2:0", "Thursday 11:0-2:0", "Friday 11:0-2:0", "Saturday 11:0-2:0", "Sunday 11:0-2:0"], "state": "OH", "postal_code": "44141", "categories": ["Nightlife", "American (Traditional)", "Pubs", "Restaurants", "Bars"], "stars": 3.5, "address": "7265 Fitzwater Rd", "latitude": 41.3403188, "review_count": 23, "attributes": ["Alcohol: full_bar", "Ambience: {'romantic': False, 'intimate': False, 'classy': False, 'hipster': False, 'divey': False, 'touristy': False, 'trendy': False, 'upscale': False, 'casual': False}", "BikeParking: True", "BusinessAcceptsCreditCards: True", "BusinessParking: {'garage': False, 'street': False, 'validated': False, 'lot': True, 'valet': False}", "CoatCheck: False", "GoodForDancing: False", "GoodForKids: True", "GoodForMeal: {'dessert': False, 'latenight': False, 'lunch': False, 'dinner': False, 'breakfast': False, 'brunch': False}", "HappyHour: True", "HasTV: True", "NoiseLevel: average", "OutdoorSeating: True", "RestaurantsAttire: casual", "RestaurantsDelivery: False", "RestaurantsGoodForGroups: True", "RestaurantsPriceRange2: 1", "RestaurantsReservations: False", "RestaurantsTableService: True", "RestaurantsTakeOut: True", "WheelchairAccessible: True", "WiFi: no"], "type": "business", "is_open": 1}], [{"city": "Brecksville", "neighborhood": "", "name": "London Pickle Works", "business_id": "4P-vTvE6cncJyUyLh73pxw", "longitude": -81.6269998, "hours": ["Monday 11:0-2:0", "Tuesday 11:0-2:0", "Wednesday 11:0-2:0", "Thursday 11:0-2:0", "Friday 11:0-2:0", "Saturday 11:0-2:0", "Sunday 11:0-2:0"], "state": "OH", "postal_code": "44141", "categories": ["Nightlife", "American (Traditional)", "Pubs", "Restaurants", "Bars"], "stars": 3.5, "address": "7265 Fitzwater Rd", "latitude": 41.3403188, "review_count": 23, "attributes": ["Alcohol: full_bar", "Ambience: {'romantic': False, 'intimate': False, 'classy': False, 'hipster': False, 'divey': False, 'touristy': False, 'trendy': False, 'upscale': False, 'casual': False}", "BikeParking: True", "BusinessAcceptsCreditCards: True", "BusinessParking: {'garage': False, 'street': False, 'validated': False, 'lot': True, 'valet': False}", "CoatCheck: False", "GoodForDancing: False", "GoodForKids: True", "GoodForMeal: {'dessert': False, 'latenight': False, 'lunch': False, 'dinner': False, 'breakfast': False, 'brunch': False}", "HappyHour: True", "HasTV: True", "NoiseLevel: average", "OutdoorSeating: True", "RestaurantsAttire: casual", "RestaurantsDelivery: False", "RestaurantsGoodForGroups: True", "RestaurantsPriceRange2: 1", "RestaurantsReservations: False", "RestaurantsTableService: True", "RestaurantsTakeOut: True", "WheelchairAccessible: True", "WiFi: no"], "type": "business", "is_open": 1}], [{"city": "Brecksville", "neighborhood": "", "name": "London Pickle Works", "business_id": "4P-vTvE6cncJyUyLh73pxw", "longitude": -81.6269998, "hours": ["Monday 11:0-2:0", "Tuesday 11:0-2:0", "Wednesday 11:0-2:0", "Thursday 11:0-2:0", "Friday 11:0-2:0", "Saturday 11:0-2:0", "Sunday 11:0-2:0"], "state": "OH", "postal_code": "44141", "categories": ["Nightlife", "American (Traditional)", "Pubs", "Restaurants", "Bars"], "stars": 3.5, "address": "7265 Fitzwater Rd", "latitude": 41.3403188, "review_count": 23, "attributes": ["Alcohol: full_bar", "Ambience: {'romantic': False, 'intimate': False, 'classy': False, 'hipster': False, 'divey': False, 'touristy': False, 'trendy': False, 'upscale': False, 'casual': False}", "BikeParking: True", "BusinessAcceptsCreditCards: True", "BusinessParking: {'garage': False, 'street': False, 'validated': False, 'lot': True, 'valet': False}", "CoatCheck: False", "GoodForDancing: False", "GoodForKids: True", "GoodForMeal: {'dessert': False, 'latenight': False, 'lunch': False, 'dinner': False, 'breakfast': False, 'brunch': False}", "HappyHour: True", "HasTV: True", "NoiseLevel: average", "OutdoorSeating: True", "RestaurantsAttire: casual", "RestaurantsDelivery: False", "RestaurantsGoodForGroups: True", "RestaurantsPriceRange2: 1", "RestaurantsReservations: False", "RestaurantsTableService: True", "RestaurantsTakeOut: True", "WheelchairAccessible: True", "WiFi: no"], "type": "business", "is_open": 1}], [{"city": "Brecksville", "neighborhood": "", "name": "London Pickle Works", "business_id": "4P-vTvE6cncJyUyLh73pxw", "longitude": -81.6269998, "hours": ["Monday 11:0-2:0", "Tuesday 11:0-2:0", "Wednesday 11:0-2:0", "Thursday 11:0-2:0", "Friday 11:0-2:0", "Saturday 11:0-2:0", "Sunday 11:0-2:0"], "state": "OH", "postal_code": "44141", "categories": ["Nightlife", "American (Traditional)", "Pubs", "Restaurants", "Bars"], "stars": 3.5, "address": "7265 Fitzwater Rd", "latitude": 41.3403188, "review_count": 23, "attributes": ["Alcohol: full_bar", "Ambience: {'romantic': False, 'intimate': False, 'classy': False, 'hipster': False, 'divey': False, 'touristy': False, 'trendy': False, 'upscale': False, 'casual': False}", "BikeParking: True", "BusinessAcceptsCreditCards: True", "BusinessParking: {'garage': False, 'street': False, 'validated': False, 'lot': True, 'valet': False}", "CoatCheck: False", "GoodForDancing: False", "GoodForKids: True", "GoodForMeal: {'dessert': False, 'latenight': False, 'lunch': False, 'dinner': False, 'breakfast': False, 'brunch': False}", "HappyHour: True", "HasTV: True", "NoiseLevel: average", "OutdoorSeating: True", "RestaurantsAttire: casual", "RestaurantsDelivery: False", "RestaurantsGoodForGroups: True", "RestaurantsPriceRange2: 1", "RestaurantsReservations: False", "RestaurantsTableService: True", "RestaurantsTakeOut: True", "WheelchairAccessible: True", "WiFi: no"], "type": "business", "is_open": 1}], [{"city": "Brecksville", "neighborhood": "", "name": "London Pickle Works", "business_id": "4P-vTvE6cncJyUyLh73pxw", "longitude": -81.6269998, "hours": ["Monday 11:0-2:0", "Tuesday 11:0-2:0", "Wednesday 11:0-2:0", "Thursday 11:0-2:0", "Friday 11:0-2:0", "Saturday 11:0-2:0", "Sunday 11:0-2:0"], "state": "OH", "postal_code": "44141", "categories": ["Nightlife", "American (Traditional)", "Pubs", "Restaurants", "Bars"], "stars": 3.5, "address": "7265 Fitzwater Rd", "latitude": 41.3403188, "review_count": 23, "attributes": ["Alcohol: full_bar", "Ambience: {'romantic': False, 'intimate': False, 'classy': False, 'hipster': False, 'divey': False, 'touristy': False, 'trendy': False, 'upscale': False, 'casual': False}", "BikeParking: True", "BusinessAcceptsCreditCards: True", "BusinessParking: {'garage': False, 'street': False, 'validated': False, 'lot': True, 'valet': False}", "CoatCheck: False", "GoodForDancing: False", "GoodForKids: True", "GoodForMeal: {'dessert': False, 'latenight': False, 'lunch': False, 'dinner': False, 'breakfast': False, 'brunch': False}", "HappyHour: True", "HasTV: True", "NoiseLevel: average", "OutdoorSeating: True", "RestaurantsAttire: casual", "RestaurantsDelivery: False", "RestaurantsGoodForGroups: True", "RestaurantsPriceRange2: 1", "RestaurantsReservations: False", "RestaurantsTableService: True", "RestaurantsTakeOut: True", "WheelchairAccessible: True", "WiFi: no"], "type": "business", "is_open": 1}], [{"city": "Brecksville", "neighborhood": "", "name": "London Pickle Works", "business_id": "4P-vTvE6cncJyUyLh73pxw", "longitude": -81.6269998, "hours": ["Monday 11:0-2:0", "Tuesday 11:0-2:0", "Wednesday 11:0-2:0", "Thursday 11:0-2:0", "Friday 11:0-2:0", "Saturday 11:0-2:0", "Sunday 11:0-2:0"], "state": "OH", "postal_code": "44141", "categories": ["Nightlife", "American (Traditional)", "Pubs", "Restaurants", "Bars"], "stars": 3.5, "address": "7265 Fitzwater Rd", "latitude": 41.3403188, "review_count": 23, "attributes": ["Alcohol: full_bar", "Ambience: {'romantic': False, 'intimate': False, 'classy': False, 'hipster': False, 'divey': False, 'touristy': False, 'trendy': False, 'upscale': False, 'casual': False}", "BikeParking: True", "BusinessAcceptsCreditCards: True", "BusinessParking: {'garage': False, 'street': False, 'validated': False, 'lot': True, 'valet': False}", "CoatCheck: False", "GoodForDancing: False", "GoodForKids: True", "GoodForMeal: {'dessert': False, 'latenight': False, 'lunch': False, 'dinner': False, 'breakfast': False, 'brunch': False}", "HappyHour: True", "HasTV: True", "NoiseLevel: average", "OutdoorSeating: True", "RestaurantsAttire: casual", "RestaurantsDelivery: False", "RestaurantsGoodForGroups: True", "RestaurantsPriceRange2: 1", "RestaurantsReservations: False", "RestaurantsTableService: True", "RestaurantsTakeOut: True", "WheelchairAccessible: True", "WiFi: no"], "type": "business", "is_open": 1}], [{"city": "Brecksville", "neighborhood": "", "name": "London Pickle Works", "business_id": "4P-vTvE6cncJyUyLh73pxw", "longitude": -81.6269998, "hours": ["Monday 11:0-2:0", "Tuesday 11:0-2:0", "Wednesday 11:0-2:0", "Thursday 11:0-2:0", "Friday 11:0-2:0", "Saturday 11:0-2:0", "Sunday 11:0-2:0"], "state": "OH", "postal_code": "44141", "categories": ["Nightlife", "American (Traditional)", "Pubs", "Restaurants", "Bars"], "stars": 3.5, "address": "7265 Fitzwater Rd", "latitude": 41.3403188, "review_count": 23, "attributes": ["Alcohol: full_bar", "Ambience: {'romantic': False, 'intimate': False, 'classy': False, 'hipster': False, 'divey': False, 'touristy': False, 'trendy': False, 'upscale': False, 'casual': False}", "BikeParking: True", "BusinessAcceptsCreditCards: True", "BusinessParking: {'garage': False, 'street': False, 'validated': False, 'lot': True, 'valet': False}", "CoatCheck: False", "GoodForDancing: False", "GoodForKids: True", "GoodForMeal: {'dessert': False, 'latenight': False, 'lunch': False, 'dinner': False, 'breakfast': False, 'brunch': False}", "HappyHour: True", "HasTV: True", "NoiseLevel: average", "OutdoorSeating: True", "RestaurantsAttire: casual", "RestaurantsDelivery: False", "RestaurantsGoodForGroups: True", "RestaurantsPriceRange2: 1", "RestaurantsReservations: False", "RestaurantsTableService: True", "RestaurantsTakeOut: True", "WheelchairAccessible: True", "WiFi: no"], "type": "business", "is_open": 1}], [{"city": "Brecksville", "neighborhood": "", "name": "London Pickle Works", "business_id": "4P-vTvE6cncJyUyLh73pxw", "longitude": -81.6269998, "hours": ["Monday 11:0-2:0", "Tuesday 11:0-2:0", "Wednesday 11:0-2:0", "Thursday 11:0-2:0", "Friday 11:0-2:0", "Saturday 11:0-2:0", "Sunday 11:0-2:0"], "state": "OH", "postal_code": "44141", "categories": ["Nightlife", "American (Traditional)", "Pubs", "Restaurants", "Bars"], "stars": 3.5, "address": "7265 Fitzwater Rd", "latitude": 41.3403188, "review_count": 23, "attributes": ["Alcohol: full_bar", "Ambience: {'romantic': False, 'intimate': False, 'classy': False, 'hipster': False, 'divey': False, 'touristy': False, 'trendy': False, 'upscale': False, 'casual': False}", "BikeParking: True", "BusinessAcceptsCreditCards: True", "BusinessParking: {'garage': False, 'street': False, 'validated': False, 'lot': True, 'valet': False}", "CoatCheck: False", "GoodForDancing: False", "GoodForKids: True", "GoodForMeal: {'dessert': False, 'latenight': False, 'lunch': False, 'dinner': False, 'breakfast': False, 'brunch': False}", "HappyHour: True", "HasTV: True", "NoiseLevel: average", "OutdoorSeating: True", "RestaurantsAttire: casual", "RestaurantsDelivery: False", "RestaurantsGoodForGroups: True", "RestaurantsPriceRange2: 1", "RestaurantsReservations: False", "RestaurantsTableService: True", "RestaurantsTakeOut: True", "WheelchairAccessible: True", "WiFi: no"], "type": "business", "is_open": 1}], [{"city": "Brecksville", "neighborhood": "", "name": "London Pickle Works", "business_id": "4P-vTvE6cncJyUyLh73pxw", "longitude": -81.6269998, "hours": ["Monday 11:0-2:0", "Tuesday 11:0-2:0", "Wednesday 11:0-2:0", "Thursday 11:0-2:0", "Friday 11:0-2:0", "Saturday 11:0-2:0", "Sunday 11:0-2:0"], "state": "OH", "postal_code": "44141", "categories": ["Nightlife", "American (Traditional)", "Pubs", "Restaurants", "Bars"], "stars": 3.5, "address": "7265 Fitzwater Rd", "latitude": 41.3403188, "review_count": 23, "attributes": ["Alcohol: full_bar", "Ambience: {'romantic': False, 'intimate': False, 'classy': False, 'hipster': False, 'divey': False, 'touristy': False, 'trendy': False, 'upscale': False, 'casual': False}", "BikeParking: True", "BusinessAcceptsCreditCards: True", "BusinessParking: {'garage': False, 'street': False, 'validated': False, 'lot': True, 'valet': False}", "CoatCheck: False", "GoodForDancing: False", "GoodForKids: True", "GoodForMeal: {'dessert': False, 'latenight': False, 'lunch': False, 'dinner': False, 'breakfast': False, 'brunch': False}", "HappyHour: True", "HasTV: True", "NoiseLevel: average", "OutdoorSeating: True", "RestaurantsAttire: casual", "RestaurantsDelivery: False", "RestaurantsGoodForGroups: True", "RestaurantsPriceRange2: 1", "RestaurantsReservations: False", "RestaurantsTableService: True", "RestaurantsTakeOut: True", "WheelchairAccessible: True", "WiFi: no"], "type": "business", "is_open": 1}], [{"city": "Brecksville", "neighborhood": "", "name": "London Pickle Works", "business_id": "4P-vTvE6cncJyUyLh73pxw", "longitude": -81.6269998, "hours": ["Monday 11:0-2:0", "Tuesday 11:0-2:0", "Wednesday 11:0-2:0", "Thursday 11:0-2:0", "Friday 11:0-2:0", "Saturday 11:0-2:0", "Sunday 11:0-2:0"], "state": "OH", "postal_code": "44141", "categories": ["Nightlife", "American (Traditional)", "Pubs", "Restaurants", "Bars"], "stars": 3.5, "address": "7265 Fitzwater Rd", "latitude": 41.3403188, "review_count": 23, "attributes": ["Alcohol: full_bar", "Ambience: {'romantic': False, 'intimate': False, 'classy': False, 'hipster': False, 'divey': False, 'touristy': False, 'trendy': False, 'upscale': False, 'casual': False}", "BikeParking: True", "BusinessAcceptsCreditCards: True", "BusinessParking: {'garage': False, 'street': False, 'validated': False, 'lot': True, 'valet': False}", "CoatCheck: False", "GoodForDancing: False", "GoodForKids: True", "GoodForMeal: {'dessert': False, 'latenight': False, 'lunch': False, 'dinner': False, 'breakfast': False, 'brunch': False}", "HappyHour: True", "HasTV: True", "NoiseLevel: average", "OutdoorSeating: True", "RestaurantsAttire: casual", "RestaurantsDelivery: False", "RestaurantsGoodForGroups: True", "RestaurantsPriceRange2: 1", "RestaurantsReservations: False", "RestaurantsTableService: True", "RestaurantsTakeOut: True", "WheelchairAccessible: True", "WiFi: no"], "type": "business", "is_open": 1}], [{"city": "Brecksville", "neighborhood": "", "name": "London Pickle Works", "business_id": "4P-vTvE6cncJyUyLh73pxw", "longitude": -81.6269998, "hours": ["Monday 11:0-2:0", "Tuesday 11:0-2:0", "Wednesday 11:0-2:0", "Thursday 11:0-2:0", "Friday 11:0-2:0", "Saturday 11:0-2:0", "Sunday 11:0-2:0"], "state": "OH", "postal_code": "44141", "categories": ["Nightlife", "American (Traditional)", "Pubs", "Restaurants", "Bars"], "stars": 3.5, "address": "7265 Fitzwater Rd", "latitude": 41.3403188, "review_count": 23, "attributes": ["Alcohol: full_bar", "Ambience: {'romantic': False, 'intimate': False, 'classy': False, 'hipster': False, 'divey': False, 'touristy': False, 'trendy': False, 'upscale': False, 'casual': False}", "BikeParking: True", "BusinessAcceptsCreditCards: True", "BusinessParking: {'garage': False, 'street': False, 'validated': False, 'lot': True, 'valet': False}", "CoatCheck: False", "GoodForDancing: False", "GoodForKids: True", "GoodForMeal: {'dessert': False, 'latenight': False, 'lunch': False, 'dinner': False, 'breakfast': False, 'brunch': False}", "HappyHour: True", "HasTV: True", "NoiseLevel: average", "OutdoorSeating: True", "RestaurantsAttire: casual", "RestaurantsDelivery: False", "RestaurantsGoodForGroups: True", "RestaurantsPriceRange2: 1", "RestaurantsReservations: False", "RestaurantsTableService: True", "RestaurantsTakeOut: True", "WheelchairAccessible: True", "WiFi: no"], "type": "business", "is_open": 1}], [{"city": "Brecksville", "neighborhood": "", "name": "London Pickle Works", "business_id": "4P-vTvE6cncJyUyLh73pxw", "longitude": -81.6269998, "hours": ["Monday 11:0-2:0", "Tuesday 11:0-2:0", "Wednesday 11:0-2:0", "Thursday 11:0-2:0", "Friday 11:0-2:0", "Saturday 11:0-2:0", "Sunday 11:0-2:0"], "state": "OH", "postal_code": "44141", "categories": ["Nightlife", "American (Traditional)", "Pubs", "Restaurants", "Bars"], "stars": 3.5, "address": "7265 Fitzwater Rd", "latitude": 41.3403188, "review_count": 23, "attributes": ["Alcohol: full_bar", "Ambience: {'romantic': False, 'intimate': False, 'classy': False, 'hipster': False, 'divey': False, 'touristy': False, 'trendy': False, 'upscale': False, 'casual': False}", "BikeParking: True", "BusinessAcceptsCreditCards: True", "BusinessParking: {'garage': False, 'street': False, 'validated': False, 'lot': True, 'valet': False}", "CoatCheck: False", "GoodForDancing: False", "GoodForKids: True", "GoodForMeal: {'dessert': False, 'latenight': False, 'lunch': False, 'dinner': False, 'breakfast': False, 'brunch': False}", "HappyHour: True", "HasTV: True", "NoiseLevel: average", "OutdoorSeating: True", "RestaurantsAttire: casual", "RestaurantsDelivery: False", "RestaurantsGoodForGroups: True", "RestaurantsPriceRange2: 1", "RestaurantsReservations: False", "RestaurantsTableService: True", "RestaurantsTakeOut: True", "WheelchairAccessible: True", "WiFi: no"], "type": "business", "is_open": 1}], [{"city": "Las Vegas", "neighborhood": "The Strip", "name": "Khotan", "business_id": "4uiijOUDzc-DeIb2XcKW_A", "longitude": -115.1711298, "hours": ["Monday 17:0-23:0", "Tuesday 17:0-23:0", "Wednesday 17:0-23:0", "Thursday 17:0-23:0", "Friday 17:0-0:0", "Saturday 17:0-0:0", "Sunday 17:0-23:0"], "state": "NV", "postal_code": "89109", "categories": ["Asian Fusion", "Restaurants"], "stars": 2.5, "address": "Treasure Island Hotel and Casino, 3300 S Las Vegas Blvd", "latitude": 36.128561, "review_count": 37, "attributes": ["Alcohol: full_bar", "Ambience: {'romantic': False, 'intimate': False, 'classy': False, 'hipster': False, 'divey': False, 'touristy': False, 'trendy': False, 'upscale': True, 'casual': False}", "BusinessAcceptsCreditCards: True", "BusinessParking: {'garage': True, 'street': False, 'validated': False, 'lot': False, 'valet': False}", "GoodForKids: False", "GoodForMeal: {'dessert': False, 'latenight': False, 'lunch': False, 'dinner': True, 'breakfast': False, 'brunch': False}", "HasTV: True", "NoiseLevel: average", "OutdoorSeating: True", "RestaurantsAttire: casual", "RestaurantsDelivery: False", "RestaurantsGoodForGroups: True", "RestaurantsPriceRange2: 3", "RestaurantsReservations: True", "RestaurantsTableService: True", "RestaurantsTakeOut: False", "WheelchairAccessible: True", "WiFi: paid"], "type": "business", "is_open": 0}], [{"city": "Las Vegas", "neighborhood": "The Strip", "name": "Khotan", "business_id": "4uiijOUDzc-DeIb2XcKW_A", "longitude": -115.1711298, "hours": ["Monday 17:0-23:0", "Tuesday 17:0-23:0", "Wednesday 17:0-23:0", "Thursday 17:0-23:0", "Friday 17:0-0:0", "Saturday 17:0-0:0", "Sunday 17:0-23:0"], "state": "NV", "postal_code": "89109", "categories": ["Asian Fusion", "Restaurants"], "stars": 2.5, "address": "Treasure Island Hotel and Casino, 3300 S Las Vegas Blvd", "latitude": 36.128561, "review_count": 37, "attributes": ["Alcohol: full_bar", "Ambience: {'romantic': False, 'intimate': False, 'classy': False, 'hipster': False, 'divey': False, 'touristy': False, 'trendy': False, 'upscale': True, 'casual': False}", "BusinessAcceptsCreditCards: True", "BusinessParking: {'garage': True, 'street': False, 'validated': False, 'lot': False, 'valet': False}", "GoodForKids: False", "GoodForMeal: {'dessert': False, 'latenight': False, 'lunch': False, 'dinner': True, 'breakfast': False, 'brunch': False}", "HasTV: True", "NoiseLevel: average", "OutdoorSeating: True", "RestaurantsAttire: casual", "RestaurantsDelivery: False", "RestaurantsGoodForGroups: True", "RestaurantsPriceRange2: 3", "RestaurantsReservations: True", "RestaurantsTableService: True", "RestaurantsTakeOut: False", "WheelchairAccessible: True", "WiFi: paid"], "type": "business", "is_open": 0}], [{"city": "Las Vegas", "neighborhood": "The Strip", "name": "Khotan", "business_id": "4uiijOUDzc-DeIb2XcKW_A", "longitude": -115.1711298, "hours": ["Monday 17:0-23:0", "Tuesday 17:0-23:0", "Wednesday 17:0-23:0", "Thursday 17:0-23:0", "Friday 17:0-0:0", "Saturday 17:0-0:0", "Sunday 17:0-23:0"], "state": "NV", "postal_code": "89109", "categories": ["Asian Fusion", "Restaurants"], "stars": 2.5, "address": "Treasure Island Hotel and Casino, 3300 S Las Vegas Blvd", "latitude": 36.128561, "review_count": 37, "attributes": ["Alcohol: full_bar", "Ambience: {'romantic': False, 'intimate': False, 'classy': False, 'hipster': False, 'divey': False, 'touristy': False, 'trendy': False, 'upscale': True, 'casual': False}", "BusinessAcceptsCreditCards: True", "BusinessParking: {'garage': True, 'street': False, 'validated': False, 'lot': False, 'valet': False}", "GoodForKids: False", "GoodForMeal: {'dessert': False, 'latenight': False, 'lunch': False, 'dinner': True, 'breakfast': False, 'brunch': False}", "HasTV: True", "NoiseLevel: average", "OutdoorSeating: True", "RestaurantsAttire: casual", "RestaurantsDelivery: False", "RestaurantsGoodForGroups: True", "RestaurantsPriceRange2: 3", "RestaurantsReservations: True", "RestaurantsTableService: True", "RestaurantsTakeOut: False", "WheelchairAccessible: True", "WiFi: paid"], "type": "business", "is_open": 0}], [{"city": "Las Vegas", "neighborhood": "The Strip", "name": "Khotan", "business_id": "4uiijOUDzc-DeIb2XcKW_A", "longitude": -115.1711298, "hours": ["Monday 17:0-23:0", "Tuesday 17:0-23:0", "Wednesday 17:0-23:0", "Thursday 17:0-23:0", "Friday 17:0-0:0", "Saturday 17:0-0:0", "Sunday 17:0-23:0"], "state": "NV", "postal_code": "89109", "categories": ["Asian Fusion", "Restaurants"], "stars": 2.5, "address": "Treasure Island Hotel and Casino, 3300 S Las Vegas Blvd", "latitude": 36.128561, "review_count": 37, "attributes": ["Alcohol: full_bar", "Ambience: {'romantic': False, 'intimate': False, 'classy': False, 'hipster': False, 'divey': False, 'touristy': False, 'trendy': False, 'upscale': True, 'casual': False}", "BusinessAcceptsCreditCards: True", "BusinessParking: {'garage': True, 'street': False, 'validated': False, 'lot': False, 'valet': False}", "GoodForKids: False", "GoodForMeal: {'dessert': False, 'latenight': False, 'lunch': False, 'dinner': True, 'breakfast': False, 'brunch': False}", "HasTV: True", "NoiseLevel: average", "OutdoorSeating: True", "RestaurantsAttire: casual", "RestaurantsDelivery: False", "RestaurantsGoodForGroups: True", "RestaurantsPriceRange2: 3", "RestaurantsReservations: True", "RestaurantsTableService: True", "RestaurantsTakeOut: False", "WheelchairAccessible: True", "WiFi: paid"], "type": "business", "is_open": 0}], [{"city": "Las Vegas", "neighborhood": "The Strip", "name": "Khotan", "business_id": "4uiijOUDzc-DeIb2XcKW_A", "longitude": -115.1711298, "hours": ["Monday 17:0-23:0", "Tuesday 17:0-23:0", "Wednesday 17:0-23:0", "Thursday 17:0-23:0", "Friday 17:0-0:0", "Saturday 17:0-0:0", "Sunday 17:0-23:0"], "state": "NV", "postal_code": "89109", "categories": ["Asian Fusion", "Restaurants"], "stars": 2.5, "address": "Treasure Island Hotel and Casino, 3300 S Las Vegas Blvd", "latitude": 36.128561, "review_count": 37, "attributes": ["Alcohol: full_bar", "Ambience: {'romantic': False, 'intimate': False, 'classy': False, 'hipster': False, 'divey': False, 'touristy': False, 'trendy': False, 'upscale': True, 'casual': False}", "BusinessAcceptsCreditCards: True", "BusinessParking: {'garage': True, 'street': False, 'validated': False, 'lot': False, 'valet': False}", "GoodForKids: False", "GoodForMeal: {'dessert': False, 'latenight': False, 'lunch': False, 'dinner': True, 'breakfast': False, 'brunch': False}", "HasTV: True", "NoiseLevel: average", "OutdoorSeating: True", "RestaurantsAttire: casual", "RestaurantsDelivery: False", "RestaurantsGoodForGroups: True", "RestaurantsPriceRange2: 3", "RestaurantsReservations: True", "RestaurantsTableService: True", "RestaurantsTakeOut: False", "WheelchairAccessible: True", "WiFi: paid"], "type": "business", "is_open": 0}], [{"city": "Las Vegas", "neighborhood": "The Strip", "name": "Khotan", "business_id": "4uiijOUDzc-DeIb2XcKW_A", "longitude": -115.1711298, "hours": ["Monday 17:0-23:0", "Tuesday 17:0-23:0", "Wednesday 17:0-23:0", "Thursday 17:0-23:0", "Friday 17:0-0:0", "Saturday 17:0-0:0", "Sunday 17:0-23:0"], "state": "NV", "postal_code": "89109", "categories": ["Asian Fusion", "Restaurants"], "stars": 2.5, "address": "Treasure Island Hotel and Casino, 3300 S Las Vegas Blvd", "latitude": 36.128561, "review_count": 37, "attributes": ["Alcohol: full_bar", "Ambience: {'romantic': False, 'intimate': False, 'classy': False, 'hipster': False, 'divey': False, 'touristy': False, 'trendy': False, 'upscale': True, 'casual': False}", "BusinessAcceptsCreditCards: True", "BusinessParking: {'garage': True, 'street': False, 'validated': False, 'lot': False, 'valet': False}", "GoodForKids: False", "GoodForMeal: {'dessert': False, 'latenight': False, 'lunch': False, 'dinner': True, 'breakfast': False, 'brunch': False}", "HasTV: True", "NoiseLevel: average", "OutdoorSeating: True", "RestaurantsAttire: casual", "RestaurantsDelivery: False", "RestaurantsGoodForGroups: True", "RestaurantsPriceRange2: 3", "RestaurantsReservations: True", "RestaurantsTableService: True", "RestaurantsTakeOut: False", "WheelchairAccessible: True", "WiFi: paid"], "type": "business", "is_open": 0}], [{"city": "Las Vegas", "neighborhood": "The Strip", "name": "Khotan", "business_id": "4uiijOUDzc-DeIb2XcKW_A", "longitude": -115.1711298, "hours": ["Monday 17:0-23:0", "Tuesday 17:0-23:0", "Wednesday 17:0-23:0", "Thursday 17:0-23:0", "Friday 17:0-0:0", "Saturday 17:0-0:0", "Sunday 17:0-23:0"], "state": "NV", "postal_code": "89109", "categories": ["Asian Fusion", "Restaurants"], "stars": 2.5, "address": "Treasure Island Hotel and Casino, 3300 S Las Vegas Blvd", "latitude": 36.128561, "review_count": 37, "attributes": ["Alcohol: full_bar", "Ambience: {'romantic': False, 'intimate': False, 'classy': False, 'hipster': False, 'divey': False, 'touristy': False, 'trendy': False, 'upscale': True, 'casual': False}", "BusinessAcceptsCreditCards: True", "BusinessParking: {'garage': True, 'street': False, 'validated': False, 'lot': False, 'valet': False}", "GoodForKids: False", "GoodForMeal: {'dessert': False, 'latenight': False, 'lunch': False, 'dinner': True, 'breakfast': False, 'brunch': False}", "HasTV: True", "NoiseLevel: average", "OutdoorSeating: True", "RestaurantsAttire: casual", "RestaurantsDelivery: False", "RestaurantsGoodForGroups: True", "RestaurantsPriceRange2: 3", "RestaurantsReservations: True", "RestaurantsTableService: True", "RestaurantsTakeOut: False", "WheelchairAccessible: True", "WiFi: paid"], "type": "business", "is_open": 0}], [{"city": "Las Vegas", "neighborhood": "The Strip", "name": "Khotan", "business_id": "4uiijOUDzc-DeIb2XcKW_A", "longitude": -115.1711298, "hours": ["Monday 17:0-23:0", "Tuesday 17:0-23:0", "Wednesday 17:0-23:0", "Thursday 17:0-23:0", "Friday 17:0-0:0", "Saturday 17:0-0:0", "Sunday 17:0-23:0"], "state": "NV", "postal_code": "89109", "categories": ["Asian Fusion", "Restaurants"], "stars": 2.5, "address": "Treasure Island Hotel and Casino, 3300 S Las Vegas Blvd", "latitude": 36.128561, "review_count": 37, "attributes": ["Alcohol: full_bar", "Ambience: {'romantic': False, 'intimate': False, 'classy': False, 'hipster': False, 'divey': False, 'touristy': False, 'trendy': False, 'upscale': True, 'casual': False}", "BusinessAcceptsCreditCards: True", "BusinessParking: {'garage': True, 'street': False, 'validated': False, 'lot': False, 'valet': False}", "GoodForKids: False", "GoodForMeal: {'dessert': False, 'latenight': False, 'lunch': False, 'dinner': True, 'breakfast': False, 'brunch': False}", "HasTV: True", "NoiseLevel: average", "OutdoorSeating: True", "RestaurantsAttire: casual", "RestaurantsDelivery: False", "RestaurantsGoodForGroups: True", "RestaurantsPriceRange2: 3", "RestaurantsReservations: True", "RestaurantsTableService: True", "RestaurantsTakeOut: False", "WheelchairAccessible: True", "WiFi: paid"], "type": "business", "is_open": 0}], [{"city": "Las Vegas", "neighborhood": "The Strip", "name": "Khotan", "business_id": "4uiijOUDzc-DeIb2XcKW_A", "longitude": -115.1711298, "hours": ["Monday 17:0-23:0", "Tuesday 17:0-23:0", "Wednesday 17:0-23:0", "Thursday 17:0-23:0", "Friday 17:0-0:0", "Saturday 17:0-0:0", "Sunday 17:0-23:0"], "state": "NV", "postal_code": "89109", "categories": ["Asian Fusion", "Restaurants"], "stars": 2.5, "address": "Treasure Island Hotel and Casino, 3300 S Las Vegas Blvd", "latitude": 36.128561, "review_count": 37, "attributes": ["Alcohol: full_bar", "Ambience: {'romantic': False, 'intimate': False, 'classy': False, 'hipster': False, 'divey': False, 'touristy': False, 'trendy': False, 'upscale': True, 'casual': False}", "BusinessAcceptsCreditCards: True", "BusinessParking: {'garage': True, 'street': False, 'validated': False, 'lot': False, 'valet': False}", "GoodForKids: False", "GoodForMeal: {'dessert': False, 'latenight': False, 'lunch': False, 'dinner': True, 'breakfast': False, 'brunch': False}", "HasTV: True", "NoiseLevel: average", "OutdoorSeating: True", "RestaurantsAttire: casual", "RestaurantsDelivery: False", "RestaurantsGoodForGroups: True", "RestaurantsPriceRange2: 3", "RestaurantsReservations: True", "RestaurantsTableService: True", "RestaurantsTakeOut: False", "WheelchairAccessible: True", "WiFi: paid"], "type": "business", "is_open": 0}], [{"city": "Las Vegas", "neighborhood": "The Strip", "name": "Khotan", "business_id": "4uiijOUDzc-DeIb2XcKW_A", "longitude": -115.1711298, "hours": ["Monday 17:0-23:0", "Tuesday 17:0-23:0", "Wednesday 17:0-23:0", "Thursday 17:0-23:0", "Friday 17:0-0:0", "Saturday 17:0-0:0", "Sunday 17:0-23:0"], "state": "NV", "postal_code": "89109", "categories": ["Asian Fusion", "Restaurants"], "stars": 2.5, "address": "Treasure Island Hotel and Casino, 3300 S Las Vegas Blvd", "latitude": 36.128561, "review_count": 37, "attributes": ["Alcohol: full_bar", "Ambience: {'romantic': False, 'intimate': False, 'classy': False, 'hipster': False, 'divey': False, 'touristy': False, 'trendy': False, 'upscale': True, 'casual': False}", "BusinessAcceptsCreditCards: True", "BusinessParking: {'garage': True, 'street': False, 'validated': False, 'lot': False, 'valet': False}", "GoodForKids: False", "GoodForMeal: {'dessert': False, 'latenight': False, 'lunch': False, 'dinner': True, 'breakfast': False, 'brunch': False}", "HasTV: True", "NoiseLevel: average", "OutdoorSeating: True", "RestaurantsAttire: casual", "RestaurantsDelivery: False", "RestaurantsGoodForGroups: True", "RestaurantsPriceRange2: 3", "RestaurantsReservations: True", "RestaurantsTableService: True", "RestaurantsTakeOut: False", "WheelchairAccessible: True", "WiFi: paid"], "type": "business", "is_open": 0}], [{"city": "Las Vegas", "neighborhood": "The Strip", "name": "Khotan", "business_id": "4uiijOUDzc-DeIb2XcKW_A", "longitude": -115.1711298, "hours": ["Monday 17:0-23:0", "Tuesday 17:0-23:0", "Wednesday 17:0-23:0", "Thursday 17:0-23:0", "Friday 17:0-0:0", "Saturday 17:0-0:0", "Sunday 17:0-23:0"], "state": "NV", "postal_code": "89109", "categories": ["Asian Fusion", "Restaurants"], "stars": 2.5, "address": "Treasure Island Hotel and Casino, 3300 S Las Vegas Blvd", "latitude": 36.128561, "review_count": 37, "attributes": ["Alcohol: full_bar", "Ambience: {'romantic': False, 'intimate': False, 'classy': False, 'hipster': False, 'divey': False, 'touristy': False, 'trendy': False, 'upscale': True, 'casual': False}", "BusinessAcceptsCreditCards: True", "BusinessParking: {'garage': True, 'street': False, 'validated': False, 'lot': False, 'valet': False}", "GoodForKids: False", "GoodForMeal: {'dessert': False, 'latenight': False, 'lunch': False, 'dinner': True, 'breakfast': False, 'brunch': False}", "HasTV: True", "NoiseLevel: average", "OutdoorSeating: True", "RestaurantsAttire: casual", "RestaurantsDelivery: False", "RestaurantsGoodForGroups: True", "RestaurantsPriceRange2: 3", "RestaurantsReservations: True", "RestaurantsTableService: True", "RestaurantsTakeOut: False", "WheelchairAccessible: True", "WiFi: paid"], "type": "business", "is_open": 0}], [{"city": "Las Vegas", "neighborhood": "The Strip", "name": "Khotan", "business_id": "4uiijOUDzc-DeIb2XcKW_A", "longitude": -115.1711298, "hours": ["Monday 17:0-23:0", "Tuesday 17:0-23:0", "Wednesday 17:0-23:0", "Thursday 17:0-23:0", "Friday 17:0-0:0", "Saturday 17:0-0:0", "Sunday 17:0-23:0"], "state": "NV", "postal_code": "89109", "categories": ["Asian Fusion", "Restaurants"], "stars": 2.5, "address": "Treasure Island Hotel and Casino, 3300 S Las Vegas Blvd", "latitude": 36.128561, "review_count": 37, "attributes": ["Alcohol: full_bar", "Ambience: {'romantic': False, 'intimate': False, 'classy': False, 'hipster': False, 'divey': False, 'touristy': False, 'trendy': False, 'upscale': True, 'casual': False}", "BusinessAcceptsCreditCards: True", "BusinessParking: {'garage': True, 'street': False, 'validated': False, 'lot': False, 'valet': False}", "GoodForKids: False", "GoodForMeal: {'dessert': False, 'latenight': False, 'lunch': False, 'dinner': True, 'breakfast': False, 'brunch': False}", "HasTV: True", "NoiseLevel: average", "OutdoorSeating: True", "RestaurantsAttire: casual", "RestaurantsDelivery: False", "RestaurantsGoodForGroups: True", "RestaurantsPriceRange2: 3", "RestaurantsReservations: True", "RestaurantsTableService: True", "RestaurantsTakeOut: False", "WheelchairAccessible: True", "WiFi: paid"], "type": "business", "is_open": 0}], [{"city": "Las Vegas", "neighborhood": "The Strip", "name": "Khotan", "business_id": "4uiijOUDzc-DeIb2XcKW_A", "longitude": -115.1711298, "hours": ["Monday 17:0-23:0", "Tuesday 17:0-23:0", "Wednesday 17:0-23:0", "Thursday 17:0-23:0", "Friday 17:0-0:0", "Saturday 17:0-0:0", "Sunday 17:0-23:0"], "state": "NV", "postal_code": "89109", "categories": ["Asian Fusion", "Restaurants"], "stars": 2.5, "address": "Treasure Island Hotel and Casino, 3300 S Las Vegas Blvd", "latitude": 36.128561, "review_count": 37, "attributes": ["Alcohol: full_bar", "Ambience: {'romantic': False, 'intimate': False, 'classy': False, 'hipster': False, 'divey': False, 'touristy': False, 'trendy': False, 'upscale': True, 'casual': False}", "BusinessAcceptsCreditCards: True", "BusinessParking: {'garage': True, 'street': False, 'validated': False, 'lot': False, 'valet': False}", "GoodForKids: False", "GoodForMeal: {'dessert': False, 'latenight': False, 'lunch': False, 'dinner': True, 'breakfast': False, 'brunch': False}", "HasTV: True", "NoiseLevel: average", "OutdoorSeating: True", "RestaurantsAttire: casual", "RestaurantsDelivery: False", "RestaurantsGoodForGroups: True", "RestaurantsPriceRange2: 3", "RestaurantsReservations: True", "RestaurantsTableService: True", "RestaurantsTakeOut: False", "WheelchairAccessible: True", "WiFi: paid"], "type": "business", "is_open": 0}], [{"city": "Las Vegas", "neighborhood": "The Strip", "name": "Khotan", "business_id": "4uiijOUDzc-DeIb2XcKW_A", "longitude": -115.1711298, "hours": ["Monday 17:0-23:0", "Tuesday 17:0-23:0", "Wednesday 17:0-23:0", "Thursday 17:0-23:0", "Friday 17:0-0:0", "Saturday 17:0-0:0", "Sunday 17:0-23:0"], "state": "NV", "postal_code": "89109", "categories": ["Asian Fusion", "Restaurants"], "stars": 2.5, "address": "Treasure Island Hotel and Casino, 3300 S Las Vegas Blvd", "latitude": 36.128561, "review_count": 37, "attributes": ["Alcohol: full_bar", "Ambience: {'romantic': False, 'intimate': False, 'classy': False, 'hipster': False, 'divey': False, 'touristy': False, 'trendy': False, 'upscale': True, 'casual': False}", "BusinessAcceptsCreditCards: True", "BusinessParking: {'garage': True, 'street': False, 'validated': False, 'lot': False, 'valet': False}", "GoodForKids: False", "GoodForMeal: {'dessert': False, 'latenight': False, 'lunch': False, 'dinner': True, 'breakfast': False, 'brunch': False}", "HasTV: True", "NoiseLevel: average", "OutdoorSeating: True", "RestaurantsAttire: casual", "RestaurantsDelivery: False", "RestaurantsGoodForGroups: True", "RestaurantsPriceRange2: 3", "RestaurantsReservations: True", "RestaurantsTableService: True", "RestaurantsTakeOut: False", "WheelchairAccessible: True", "WiFi: paid"], "type": "business", "is_open": 0}], [{"city": "Las Vegas", "neighborhood": "The Strip", "name": "Khotan", "business_id": "4uiijOUDzc-DeIb2XcKW_A", "longitude": -115.1711298, "hours": ["Monday 17:0-23:0", "Tuesday 17:0-23:0", "Wednesday 17:0-23:0", "Thursday 17:0-23:0", "Friday 17:0-0:0", "Saturday 17:0-0:0", "Sunday 17:0-23:0"], "state": "NV", "postal_code": "89109", "categories": ["Asian Fusion", "Restaurants"], "stars": 2.5, "address": "Treasure Island Hotel and Casino, 3300 S Las Vegas Blvd", "latitude": 36.128561, "review_count": 37, "attributes": ["Alcohol: full_bar", "Ambience: {'romantic': False, 'intimate': False, 'classy': False, 'hipster': False, 'divey': False, 'touristy': False, 'trendy': False, 'upscale': True, 'casual': False}", "BusinessAcceptsCreditCards: True", "BusinessParking: {'garage': True, 'street': False, 'validated': False, 'lot': False, 'valet': False}", "GoodForKids: False", "GoodForMeal: {'dessert': False, 'latenight': False, 'lunch': False, 'dinner': True, 'breakfast': False, 'brunch': False}", "HasTV: True", "NoiseLevel: average", "OutdoorSeating: True", "RestaurantsAttire: casual", "RestaurantsDelivery: False", "RestaurantsGoodForGroups: True", "RestaurantsPriceRange2: 3", "RestaurantsReservations: True", "RestaurantsTableService: True", "RestaurantsTakeOut: False", "WheelchairAccessible: True", "WiFi: paid"], "type": "business", "is_open": 0}], [{"city": "Las Vegas", "neighborhood": "The Strip", "name": "Khotan", "business_id": "4uiijOUDzc-DeIb2XcKW_A", "longitude": -115.1711298, "hours": ["Monday 17:0-23:0", "Tuesday 17:0-23:0", "Wednesday 17:0-23:0", "Thursday 17:0-23:0", "Friday 17:0-0:0", "Saturday 17:0-0:0", "Sunday 17:0-23:0"], "state": "NV", "postal_code": "89109", "categories": ["Asian Fusion", "Restaurants"], "stars": 2.5, "address": "Treasure Island Hotel and Casino, 3300 S Las Vegas Blvd", "latitude": 36.128561, "review_count": 37, "attributes": ["Alcohol: full_bar", "Ambience: {'romantic': False, 'intimate': False, 'classy': False, 'hipster': False, 'divey': False, 'touristy': False, 'trendy': False, 'upscale': True, 'casual': False}", "BusinessAcceptsCreditCards: True", "BusinessParking: {'garage': True, 'street': False, 'validated': False, 'lot': False, 'valet': False}", "GoodForKids: False", "GoodForMeal: {'dessert': False, 'latenight': False, 'lunch': False, 'dinner': True, 'breakfast': False, 'brunch': False}", "HasTV: True", "NoiseLevel: average", "OutdoorSeating: True", "RestaurantsAttire: casual", "RestaurantsDelivery: False", "RestaurantsGoodForGroups: True", "RestaurantsPriceRange2: 3", "RestaurantsReservations: True", "RestaurantsTableService: True", "RestaurantsTakeOut: False", "WheelchairAccessible: True", "WiFi: paid"], "type": "business", "is_open": 0}], [{"city": "Las Vegas", "neighborhood": "The Strip", "name": "Khotan", "business_id": "4uiijOUDzc-DeIb2XcKW_A", "longitude": -115.1711298, "hours": ["Monday 17:0-23:0", "Tuesday 17:0-23:0", "Wednesday 17:0-23:0", "Thursday 17:0-23:0", "Friday 17:0-0:0", "Saturday 17:0-0:0", "Sunday 17:0-23:0"], "state": "NV", "postal_code": "89109", "categories": ["Asian Fusion", "Restaurants"], "stars": 2.5, "address": "Treasure Island Hotel and Casino, 3300 S Las Vegas Blvd", "latitude": 36.128561, "review_count": 37, "attributes": ["Alcohol: full_bar", "Ambience: {'romantic': False, 'intimate': False, 'classy': False, 'hipster': False, 'divey': False, 'touristy': False, 'trendy': False, 'upscale': True, 'casual': False}", "BusinessAcceptsCreditCards: True", "BusinessParking: {'garage': True, 'street': False, 'validated': False, 'lot': False, 'valet': False}", "GoodForKids: False", "GoodForMeal: {'dessert': False, 'latenight': False, 'lunch': False, 'dinner': True, 'breakfast': False, 'brunch': False}", "HasTV: True", "NoiseLevel: average", "OutdoorSeating: True", "RestaurantsAttire: casual", "RestaurantsDelivery: False", "RestaurantsGoodForGroups: True", "RestaurantsPriceRange2: 3", "RestaurantsReservations: True", "RestaurantsTableService: True", "RestaurantsTakeOut: False", "WheelchairAccessible: True", "WiFi: paid"], "type": "business", "is_open": 0}], [{"city": "Las Vegas", "neighborhood": "The Strip", "name": "Khotan", "business_id": "4uiijOUDzc-DeIb2XcKW_A", "longitude": -115.1711298, "hours": ["Monday 17:0-23:0", "Tuesday 17:0-23:0", "Wednesday 17:0-23:0", "Thursday 17:0-23:0", "Friday 17:0-0:0", "Saturday 17:0-0:0", "Sunday 17:0-23:0"], "state": "NV", "postal_code": "89109", "categories": ["Asian Fusion", "Restaurants"], "stars": 2.5, "address": "Treasure Island Hotel and Casino, 3300 S Las Vegas Blvd", "latitude": 36.128561, "review_count": 37, "attributes": ["Alcohol: full_bar", "Ambience: {'romantic': False, 'intimate': False, 'classy': False, 'hipster': False, 'divey': False, 'touristy': False, 'trendy': False, 'upscale': True, 'casual': False}", "BusinessAcceptsCreditCards: True", "BusinessParking: {'garage': True, 'street': False, 'validated': False, 'lot': False, 'valet': False}", "GoodForKids: False", "GoodForMeal: {'dessert': False, 'latenight': False, 'lunch': False, 'dinner': True, 'breakfast': False, 'brunch': False}", "HasTV: True", "NoiseLevel: average", "OutdoorSeating: True", "RestaurantsAttire: casual", "RestaurantsDelivery: False", "RestaurantsGoodForGroups: True", "RestaurantsPriceRange2: 3", "RestaurantsReservations: True", "RestaurantsTableService: True", "RestaurantsTakeOut: False", "WheelchairAccessible: True", "WiFi: paid"], "type": "business", "is_open": 0}], [{"city": "Las Vegas", "neighborhood": "The Strip", "name": "Khotan", "business_id": "4uiijOUDzc-DeIb2XcKW_A", "longitude": -115.1711298, "hours": ["Monday 17:0-23:0", "Tuesday 17:0-23:0", "Wednesday 17:0-23:0", "Thursday 17:0-23:0", "Friday 17:0-0:0", "Saturday 17:0-0:0", "Sunday 17:0-23:0"], "state": "NV", "postal_code": "89109", "categories": ["Asian Fusion", "Restaurants"], "stars": 2.5, "address": "Treasure Island Hotel and Casino, 3300 S Las Vegas Blvd", "latitude": 36.128561, "review_count": 37, "attributes": ["Alcohol: full_bar", "Ambience: {'romantic': False, 'intimate': False, 'classy': False, 'hipster': False, 'divey': False, 'touristy': False, 'trendy': False, 'upscale': True, 'casual': False}", "BusinessAcceptsCreditCards: True", "BusinessParking: {'garage': True, 'street': False, 'validated': False, 'lot': False, 'valet': False}", "GoodForKids: False", "GoodForMeal: {'dessert': False, 'latenight': False, 'lunch': False, 'dinner': True, 'breakfast': False, 'brunch': False}", "HasTV: True", "NoiseLevel: average", "OutdoorSeating: True", "RestaurantsAttire: casual", "RestaurantsDelivery: False", "RestaurantsGoodForGroups: True", "RestaurantsPriceRange2: 3", "RestaurantsReservations: True", "RestaurantsTableService: True", "RestaurantsTakeOut: False", "WheelchairAccessible: True", "WiFi: paid"], "type": "business", "is_open": 0}], [{"city": "Las Vegas", "neighborhood": "The Strip", "name": "Khotan", "business_id": "4uiijOUDzc-DeIb2XcKW_A", "longitude": -115.1711298, "hours": ["Monday 17:0-23:0", "Tuesday 17:0-23:0", "Wednesday 17:0-23:0", "Thursday 17:0-23:0", "Friday 17:0-0:0", "Saturday 17:0-0:0", "Sunday 17:0-23:0"], "state": "NV", "postal_code": "89109", "categories": ["Asian Fusion", "Restaurants"], "stars": 2.5, "address": "Treasure Island Hotel and Casino, 3300 S Las Vegas Blvd", "latitude": 36.128561, "review_count": 37, "attributes": ["Alcohol: full_bar", "Ambience: {'romantic': False, 'intimate': False, 'classy': False, 'hipster': False, 'divey': False, 'touristy': False, 'trendy': False, 'upscale': True, 'casual': False}", "BusinessAcceptsCreditCards: True", "BusinessParking: {'garage': True, 'street': False, 'validated': False, 'lot': False, 'valet': False}", "GoodForKids: False", "GoodForMeal: {'dessert': False, 'latenight': False, 'lunch': False, 'dinner': True, 'breakfast': False, 'brunch': False}", "HasTV: True", "NoiseLevel: average", "OutdoorSeating: True", "RestaurantsAttire: casual", "RestaurantsDelivery: False", "RestaurantsGoodForGroups: True", "RestaurantsPriceRange2: 3", "RestaurantsReservations: True", "RestaurantsTableService: True", "RestaurantsTakeOut: False", "WheelchairAccessible: True", "WiFi: paid"], "type": "business", "is_open": 0}], [{"city": "Las Vegas", "neighborhood": "The Strip", "name": "Khotan", "business_id": "4uiijOUDzc-DeIb2XcKW_A", "longitude": -115.1711298, "hours": ["Monday 17:0-23:0", "Tuesday 17:0-23:0", "Wednesday 17:0-23:0", "Thursday 17:0-23:0", "Friday 17:0-0:0", "Saturday 17:0-0:0", "Sunday 17:0-23:0"], "state": "NV", "postal_code": "89109", "categories": ["Asian Fusion", "Restaurants"], "stars": 2.5, "address": "Treasure Island Hotel and Casino, 3300 S Las Vegas Blvd", "latitude": 36.128561, "review_count": 37, "attributes": ["Alcohol: full_bar", "Ambience: {'romantic': False, 'intimate': False, 'classy': False, 'hipster': False, 'divey': False, 'touristy': False, 'trendy': False, 'upscale': True, 'casual': False}", "BusinessAcceptsCreditCards: True", "BusinessParking: {'garage': True, 'street': False, 'validated': False, 'lot': False, 'valet': False}", "GoodForKids: False", "GoodForMeal: {'dessert': False, 'latenight': False, 'lunch': False, 'dinner': True, 'breakfast': False, 'brunch': False}", "HasTV: True", "NoiseLevel: average", "OutdoorSeating: True", "RestaurantsAttire: casual", "RestaurantsDelivery: False", "RestaurantsGoodForGroups: True", "RestaurantsPriceRange2: 3", "RestaurantsReservations: True", "RestaurantsTableService: True", "RestaurantsTakeOut: False", "WheelchairAccessible: True", "WiFi: paid"], "type": "business", "is_open": 0}], [{"city": "Las Vegas", "neighborhood": "The Strip", "name": "Khotan", "business_id": "4uiijOUDzc-DeIb2XcKW_A", "longitude": -115.1711298, "hours": ["Monday 17:0-23:0", "Tuesday 17:0-23:0", "Wednesday 17:0-23:0", "Thursday 17:0-23:0", "Friday 17:0-0:0", "Saturday 17:0-0:0", "Sunday 17:0-23:0"], "state": "NV", "postal_code": "89109", "categories": ["Asian Fusion", "Restaurants"], "stars": 2.5, "address": "Treasure Island Hotel and Casino, 3300 S Las Vegas Blvd", "latitude": 36.128561, "review_count": 37, "attributes": ["Alcohol: full_bar", "Ambience: {'romantic': False, 'intimate': False, 'classy': False, 'hipster': False, 'divey': False, 'touristy': False, 'trendy': False, 'upscale': True, 'casual': False}", "BusinessAcceptsCreditCards: True", "BusinessParking: {'garage': True, 'street': False, 'validated': False, 'lot': False, 'valet': False}", "GoodForKids: False", "GoodForMeal: {'dessert': False, 'latenight': False, 'lunch': False, 'dinner': True, 'breakfast': False, 'brunch': False}", "HasTV: True", "NoiseLevel: average", "OutdoorSeating: True", "RestaurantsAttire: casual", "RestaurantsDelivery: False", "RestaurantsGoodForGroups: True", "RestaurantsPriceRange2: 3", "RestaurantsReservations: True", "RestaurantsTableService: True", "RestaurantsTakeOut: False", "WheelchairAccessible: True", "WiFi: paid"], "type": "business", "is_open": 0}], [{"city": "Las Vegas", "neighborhood": "The Strip", "name": "Khotan", "business_id": "4uiijOUDzc-DeIb2XcKW_A", "longitude": -115.1711298, "hours": ["Monday 17:0-23:0", "Tuesday 17:0-23:0", "Wednesday 17:0-23:0", "Thursday 17:0-23:0", "Friday 17:0-0:0", "Saturday 17:0-0:0", "Sunday 17:0-23:0"], "state": "NV", "postal_code": "89109", "categories": ["Asian Fusion", "Restaurants"], "stars": 2.5, "address": "Treasure Island Hotel and Casino, 3300 S Las Vegas Blvd", "latitude": 36.128561, "review_count": 37, "attributes": ["Alcohol: full_bar", "Ambience: {'romantic': False, 'intimate': False, 'classy': False, 'hipster': False, 'divey': False, 'touristy': False, 'trendy': False, 'upscale': True, 'casual': False}", "BusinessAcceptsCreditCards: True", "BusinessParking: {'garage': True, 'street': False, 'validated': False, 'lot': False, 'valet': False}", "GoodForKids: False", "GoodForMeal: {'dessert': False, 'latenight': False, 'lunch': False, 'dinner': True, 'breakfast': False, 'brunch': False}", "HasTV: True", "NoiseLevel: average", "OutdoorSeating: True", "RestaurantsAttire: casual", "RestaurantsDelivery: False", "RestaurantsGoodForGroups: True", "RestaurantsPriceRange2: 3", "RestaurantsReservations: True", "RestaurantsTableService: True", "RestaurantsTakeOut: False", "WheelchairAccessible: True", "WiFi: paid"], "type": "business", "is_open": 0}], [{"city": "Las Vegas", "neighborhood": "The Strip", "name": "Khotan", "business_id": "4uiijOUDzc-DeIb2XcKW_A", "longitude": -115.1711298, "hours": ["Monday 17:0-23:0", "Tuesday 17:0-23:0", "Wednesday 17:0-23:0", "Thursday 17:0-23:0", "Friday 17:0-0:0", "Saturday 17:0-0:0", "Sunday 17:0-23:0"], "state": "NV", "postal_code": "89109", "categories": ["Asian Fusion", "Restaurants"], "stars": 2.5, "address": "Treasure Island Hotel and Casino, 3300 S Las Vegas Blvd", "latitude": 36.128561, "review_count": 37, "attributes": ["Alcohol: full_bar", "Ambience: {'romantic': False, 'intimate': False, 'classy': False, 'hipster': False, 'divey': False, 'touristy': False, 'trendy': False, 'upscale': True, 'casual': False}", "BusinessAcceptsCreditCards: True", "BusinessParking: {'garage': True, 'street': False, 'validated': False, 'lot': False, 'valet': False}", "GoodForKids: False", "GoodForMeal: {'dessert': False, 'latenight': False, 'lunch': False, 'dinner': True, 'breakfast': False, 'brunch': False}", "HasTV: True", "NoiseLevel: average", "OutdoorSeating: True", "RestaurantsAttire: casual", "RestaurantsDelivery: False", "RestaurantsGoodForGroups: True", "RestaurantsPriceRange2: 3", "RestaurantsReservations: True", "RestaurantsTableService: True", "RestaurantsTakeOut: False", "WheelchairAccessible: True", "WiFi: paid"], "type": "business", "is_open": 0}], [{"city": "Las Vegas", "neighborhood": "The Strip", "name": "Khotan", "business_id": "4uiijOUDzc-DeIb2XcKW_A", "longitude": -115.1711298, "hours": ["Monday 17:0-23:0", "Tuesday 17:0-23:0", "Wednesday 17:0-23:0", "Thursday 17:0-23:0", "Friday 17:0-0:0", "Saturday 17:0-0:0", "Sunday 17:0-23:0"], "state": "NV", "postal_code": "89109", "categories": ["Asian Fusion", "Restaurants"], "stars": 2.5, "address": "Treasure Island Hotel and Casino, 3300 S Las Vegas Blvd", "latitude": 36.128561, "review_count": 37, "attributes": ["Alcohol: full_bar", "Ambience: {'romantic': False, 'intimate': False, 'classy': False, 'hipster': False, 'divey': False, 'touristy': False, 'trendy': False, 'upscale': True, 'casual': False}", "BusinessAcceptsCreditCards: True", "BusinessParking: {'garage': True, 'street': False, 'validated': False, 'lot': False, 'valet': False}", "GoodForKids: False", "GoodForMeal: {'dessert': False, 'latenight': False, 'lunch': False, 'dinner': True, 'breakfast': False, 'brunch': False}", "HasTV: True", "NoiseLevel: average", "OutdoorSeating: True", "RestaurantsAttire: casual", "RestaurantsDelivery: False", "RestaurantsGoodForGroups: True", "RestaurantsPriceRange2: 3", "RestaurantsReservations: True", "RestaurantsTableService: True", "RestaurantsTakeOut: False", "WheelchairAccessible: True", "WiFi: paid"], "type": "business", "is_open": 0}], [{"city": "Las Vegas", "neighborhood": "The Strip", "name": "Khotan", "business_id": "4uiijOUDzc-DeIb2XcKW_A", "longitude": -115.1711298, "hours": ["Monday 17:0-23:0", "Tuesday 17:0-23:0", "Wednesday 17:0-23:0", "Thursday 17:0-23:0", "Friday 17:0-0:0", "Saturday 17:0-0:0", "Sunday 17:0-23:0"], "state": "NV", "postal_code": "89109", "categories": ["Asian Fusion", "Restaurants"], "stars": 2.5, "address": "Treasure Island Hotel and Casino, 3300 S Las Vegas Blvd", "latitude": 36.128561, "review_count": 37, "attributes": ["Alcohol: full_bar", "Ambience: {'romantic': False, 'intimate': False, 'classy': False, 'hipster': False, 'divey': False, 'touristy': False, 'trendy': False, 'upscale': True, 'casual': False}", "BusinessAcceptsCreditCards: True", "BusinessParking: {'garage': True, 'street': False, 'validated': False, 'lot': False, 'valet': False}", "GoodForKids: False", "GoodForMeal: {'dessert': False, 'latenight': False, 'lunch': False, 'dinner': True, 'breakfast': False, 'brunch': False}", "HasTV: True", "NoiseLevel: average", "OutdoorSeating: True", "RestaurantsAttire: casual", "RestaurantsDelivery: False", "RestaurantsGoodForGroups: True", "RestaurantsPriceRange2: 3", "RestaurantsReservations: True", "RestaurantsTableService: True", "RestaurantsTakeOut: False", "WheelchairAccessible: True", "WiFi: paid"], "type": "business", "is_open": 0}], [{"city": "Las Vegas", "neighborhood": "The Strip", "name": "Khotan", "business_id": "4uiijOUDzc-DeIb2XcKW_A", "longitude": -115.1711298, "hours": ["Monday 17:0-23:0", "Tuesday 17:0-23:0", "Wednesday 17:0-23:0", "Thursday 17:0-23:0", "Friday 17:0-0:0", "Saturday 17:0-0:0", "Sunday 17:0-23:0"], "state": "NV", "postal_code": "89109", "categories": ["Asian Fusion", "Restaurants"], "stars": 2.5, "address": "Treasure Island Hotel and Casino, 3300 S Las Vegas Blvd", "latitude": 36.128561, "review_count": 37, "attributes": ["Alcohol: full_bar", "Ambience: {'romantic': False, 'intimate': False, 'classy': False, 'hipster': False, 'divey': False, 'touristy': False, 'trendy': False, 'upscale': True, 'casual': False}", "BusinessAcceptsCreditCards: True", "BusinessParking: {'garage': True, 'street': False, 'validated': False, 'lot': False, 'valet': False}", "GoodForKids: False", "GoodForMeal: {'dessert': False, 'latenight': False, 'lunch': False, 'dinner': True, 'breakfast': False, 'brunch': False}", "HasTV: True", "NoiseLevel: average", "OutdoorSeating: True", "RestaurantsAttire: casual", "RestaurantsDelivery: False", "RestaurantsGoodForGroups: True", "RestaurantsPriceRange2: 3", "RestaurantsReservations: True", "RestaurantsTableService: True", "RestaurantsTakeOut: False", "WheelchairAccessible: True", "WiFi: paid"], "type": "business", "is_open": 0}], [{"city": "Las Vegas", "neighborhood": "The Strip", "name": "Khotan", "business_id": "4uiijOUDzc-DeIb2XcKW_A", "longitude": -115.1711298, "hours": ["Monday 17:0-23:0", "Tuesday 17:0-23:0", "Wednesday 17:0-23:0", "Thursday 17:0-23:0", "Friday 17:0-0:0", "Saturday 17:0-0:0", "Sunday 17:0-23:0"], "state": "NV", "postal_code": "89109", "categories": ["Asian Fusion", "Restaurants"], "stars": 2.5, "address": "Treasure Island Hotel and Casino, 3300 S Las Vegas Blvd", "latitude": 36.128561, "review_count": 37, "attributes": ["Alcohol: full_bar", "Ambience: {'romantic': False, 'intimate': False, 'classy': False, 'hipster': False, 'divey': False, 'touristy': False, 'trendy': False, 'upscale': True, 'casual': False}", "BusinessAcceptsCreditCards: True", "BusinessParking: {'garage': True, 'street': False, 'validated': False, 'lot': False, 'valet': False}", "GoodForKids: False", "GoodForMeal: {'dessert': False, 'latenight': False, 'lunch': False, 'dinner': True, 'breakfast': False, 'brunch': False}", "HasTV: True", "NoiseLevel: average", "OutdoorSeating: True", "RestaurantsAttire: casual", "RestaurantsDelivery: False", "RestaurantsGoodForGroups: True", "RestaurantsPriceRange2: 3", "RestaurantsReservations: True", "RestaurantsTableService: True", "RestaurantsTakeOut: False", "WheelchairAccessible: True", "WiFi: paid"], "type": "business", "is_open": 0}], [{"city": "Las Vegas", "neighborhood": "The Strip", "name": "Khotan", "business_id": "4uiijOUDzc-DeIb2XcKW_A", "longitude": -115.1711298, "hours": ["Monday 17:0-23:0", "Tuesday 17:0-23:0", "Wednesday 17:0-23:0", "Thursday 17:0-23:0", "Friday 17:0-0:0", "Saturday 17:0-0:0", "Sunday 17:0-23:0"], "state": "NV", "postal_code": "89109", "categories": ["Asian Fusion", "Restaurants"], "stars": 2.5, "address": "Treasure Island Hotel and Casino, 3300 S Las Vegas Blvd", "latitude": 36.128561, "review_count": 37, "attributes": ["Alcohol: full_bar", "Ambience: {'romantic': False, 'intimate': False, 'classy': False, 'hipster': False, 'divey': False, 'touristy': False, 'trendy': False, 'upscale': True, 'casual': False}", "BusinessAcceptsCreditCards: True", "BusinessParking: {'garage': True, 'street': False, 'validated': False, 'lot': False, 'valet': False}", "GoodForKids: False", "GoodForMeal: {'dessert': False, 'latenight': False, 'lunch': False, 'dinner': True, 'breakfast': False, 'brunch': False}", "HasTV: True", "NoiseLevel: average", "OutdoorSeating: True", "RestaurantsAttire: casual", "RestaurantsDelivery: False", "RestaurantsGoodForGroups: True", "RestaurantsPriceRange2: 3", "RestaurantsReservations: True", "RestaurantsTableService: True", "RestaurantsTakeOut: False", "WheelchairAccessible: True", "WiFi: paid"], "type": "business", "is_open": 0}], [{"city": "Las Vegas", "neighborhood": "The Strip", "name": "Khotan", "business_id": "4uiijOUDzc-DeIb2XcKW_A", "longitude": -115.1711298, "hours": ["Monday 17:0-23:0", "Tuesday 17:0-23:0", "Wednesday 17:0-23:0", "Thursday 17:0-23:0", "Friday 17:0-0:0", "Saturday 17:0-0:0", "Sunday 17:0-23:0"], "state": "NV", "postal_code": "89109", "categories": ["Asian Fusion", "Restaurants"], "stars": 2.5, "address": "Treasure Island Hotel and Casino, 3300 S Las Vegas Blvd", "latitude": 36.128561, "review_count": 37, "attributes": ["Alcohol: full_bar", "Ambience: {'romantic': False, 'intimate': False, 'classy': False, 'hipster': False, 'divey': False, 'touristy': False, 'trendy': False, 'upscale': True, 'casual': False}", "BusinessAcceptsCreditCards: True", "BusinessParking: {'garage': True, 'street': False, 'validated': False, 'lot': False, 'valet': False}", "GoodForKids: False", "GoodForMeal: {'dessert': False, 'latenight': False, 'lunch': False, 'dinner': True, 'breakfast': False, 'brunch': False}", "HasTV: True", "NoiseLevel: average", "OutdoorSeating: True", "RestaurantsAttire: casual", "RestaurantsDelivery: False", "RestaurantsGoodForGroups: True", "RestaurantsPriceRange2: 3", "RestaurantsReservations: True", "RestaurantsTableService: True", "RestaurantsTakeOut: False", "WheelchairAccessible: True", "WiFi: paid"], "type": "business", "is_open": 0}]